{
"type": "FeatureCollection",
"name": "260104-geocode",
"crs": { "type": "name", "properties": { "name": "urn:ogc:def:crs:OGC:1.3:CRS84" } },
"features": [
{ "type": "Feature", "properties": { "Address": "Chêne-Bougeries", "Country": "Switzerland", "State": "Geneva", "result_num": "0", "osm_id": "1685465", "display_name": "Chêne-Bougeries, Genève, Schweiz/Suisse/Svizzera/Svizra", "category": "boundary", "type": "administrative", "latlong": "46.1963639,6.1854072" }, "geometry": { "type": "Point", "coordinates": [ 6.1854072, 46.1963639 ] } },
{ "type": "Feature", "properties": { "Address": "2, route de Malagnou", "Country": "Switzerland", "State": "Geneva", "result_num": "0", "osm_id": "2194822388", "display_name": "Djakovic / Montoro, 2, Route de Malagnou, Florissant, Champel, Genève, 1208, Schweiz/Suisse/Svizzera/Svizra", "category": "amenity", "type": "doctors", "latlong": "46.1984397,6.1568928" }, "geometry": { "type": "Point", "coordinates": [ 6.1568928, 46.1984397 ] } },
{ "type": "Feature", "properties": { "Address": "11, rue du Mont-Blanc", "Country": "Switzerland", "State": "Geneva", "result_num": "0", "osm_id": "1609231648", "display_name": "11, Rue du Mont-Blanc, Grottes et Saint-Gervais, Genève, 1201, Schweiz/Suisse/Svizzera/Svizra", "category": "place", "type": "house", "latlong": "46.2085072,6.1445555" }, "geometry": { "type": "Point", "coordinates": [ 6.1445555, 46.2085072 ] } },
{ "type": "Feature", "properties": { "Address": "Cointrin", "Country": "Switzerland", "State": "Geneva", "result_num": "0", "osm_id": "3347602039", "display_name": "Cointrin, Meyrin, Genève, 1216, Schweiz/Suisse/Svizzera/Svizra", "category": "place", "type": "suburb", "latlong": "46.2276222,6.1034841" }, "geometry": { "type": "Point", "coordinates": [ 6.1034841, 46.2276222 ] } },
{ "type": "Feature", "properties": { "Address": "Cointrin (Airport)", "Country": "Switzerland", "State": "Geneva", "result_num": "0", "osm_id": "364428030", "display_name": "Aéroport international de Genève, Parc des Mayens, Le Grand-Saconnex, Genève, 1218, Schweiz/Suisse/Svizzera/Svizra", "category": "aeroway", "type": "aerodrome", "latlong": "46.2378164,6.108121199999999" }, "geometry": { "type": "Point", "coordinates": [ 6.1081212, 46.2378164 ] } },
{ "type": "Feature", "properties": { "Address": "17, route de Malagnou", "Country": "Switzerland", "State": "Geneva", "result_num": "0", "osm_id": "2266119494", "display_name": "17, Route de Malagnou, Florissant, Champel, Genève, 1208, Schweiz/Suisse/Svizzera/Svizra", "category": "place", "type": "house", "latlong": "46.1989407,6.1595299" }, "geometry": { "type": "Point", "coordinates": [ 6.1595299, 46.1989407 ] } },
{ "type": "Feature", "properties": { "Address": "150, route de Ferney", "Country": "Switzerland", "State": "Geneva", "result_num": "0", "osm_id": "10984913245", "display_name": "Centre international de justice de Genève, 150, Route de Ferney, Le Grand-Saconnex, Genève, 1211, Schweiz/Suisse/Svizzera/Svizra", "category": "office", "type": "ngo", "latlong": "46.230006,6.1286849" }, "geometry": { "type": "Point", "coordinates": [ 6.1286849, 46.230006 ] } },
{ "type": "Feature", "properties": { "Address": "8, rue Maurice", "Country": "Switzerland", "State": "Geneva", "result_num": "0", "osm_id": "71392849", "display_name": "8, Rue Maurice-Braillard, Moillebeau, Petit-Saconnex et Servette, Genève, 1202, Schweiz/Suisse/Svizzera/Svizra", "category": "building", "type": "apartments", "latlong": "46.2200862,6.132079286218688" }, "geometry": { "type": "Point", "coordinates": [ 6.132079286218688, 46.2200862 ] } },
{ "type": "Feature", "properties": { "Address": "44bis, chemin des Corbillettes (Cointrin)", "Country": "Switzerland", "State": "Geneva", "result_num": "0", "osm_id": "64789023", "display_name": "Chemin des Corbillettes, Cointrin, Meyrin, Genève, 1216, Schweiz/Suisse/Svizzera/Svizra", "category": "highway", "type": "residential", "latlong": "46.226689436883554,6.109764019175485" }, "geometry": { "type": "Point", "coordinates": [ 6.109764019175485, 46.226689436883554 ] } },
{ "type": "Feature", "properties": { "Address": "5, chemin Flombards (Chêne-Bougeries)", "Country": "Switzerland", "State": "Geneva", "result_num": "0", "osm_id": "133740658", "display_name": "5, Chemin des Flombards, La Gradelle, Chêne-Bougeries, Genève, 1224, Schweiz/Suisse/Svizzera/Svizra", "category": "building", "type": "yes", "latlong": "46.199177649999996,6.19014365107758" }, "geometry": { "type": "Point", "coordinates": [ 6.19014365107758, 46.19917765 ] } },
{ "type": "Feature", "properties": { "Address": "3, rue Adrien Lachenal", "Country": "Switzerland", "State": "Geneva", "result_num": "0", "osm_id": "3671926723", "display_name": "3, Rue Adrien-Lachenal, Les Eaux-Vives, Eaux-Vives, Genève, 1207, Schweiz/Suisse/Svizzera/Svizra", "category": "place", "type": "house", "latlong": "46.2005388,6.1559624" }, "geometry": { "type": "Point", "coordinates": [ 6.1559624, 46.2005388 ] } },
{ "type": "Feature", "properties": { "Address": "Lausanne", "Country": "Switzerland", "State": "Geneva", "result_num": "0", "osm_id": "8158060", "display_name": "Route de Lausanne, Pregny, Pregny-Chambésy, Genève, 1292, Schweiz/Suisse/Svizzera/Svizra", "category": "highway", "type": "primary", "latlong": "46.241949548030135,6.151028794992313" }, "geometry": { "type": "Point", "coordinates": [ 6.151028794992313, 46.241949548030135 ] } },
{ "type": "Feature", "properties": { "Address": "72, Boulevard Saint-Georges", "Country": "Switzerland", "State": "Geneva", "result_num": "0", "osm_id": "6198366385", "display_name": "Coop, 72, Boulevard de Saint-Georges, Jonction, Genève, 1205, Schweiz/Suisse/Svizzera/Svizra", "category": "shop", "type": "supermarket", "latlong": "46.2012872,6.1391671" }, "geometry": { "type": "Point", "coordinates": [ 6.1391671, 46.2012872 ] } },
{ "type": "Feature", "properties": { "Address": "5, rue du Pré-Jérome", "Country": "Switzerland", "State": "Geneva", "result_num": "0", "osm_id": "2283383152", "display_name": "5, Rue du Pré-Jérôme, Plainpalais, Genève, 1205, Schweiz/Suisse/Svizzera/Svizra", "category": "place", "type": "house", "latlong": "46.1930948,6.1445006" }, "geometry": { "type": "Point", "coordinates": [ 6.1445006, 46.1930948 ] } },
{ "type": "Feature", "properties": { "Address": "9, rue du Clos", "Country": "Switzerland", "State": "Geneva", "result_num": "0", "osm_id": "3672993142", "display_name": "9, Rue du Clos, Les Eaux-Vives, Eaux-Vives, Genève, 1207, Schweiz/Suisse/Svizzera/Svizra", "category": "place", "type": "house", "latlong": "46.2057855,6.1623635" }, "geometry": { "type": "Point", "coordinates": [ 6.1623635, 46.2057855 ] } },
{ "type": "Feature", "properties": { "Address": "Route de Drize", "Country": "Switzerland", "State": "Geneva", "result_num": "0", "osm_id": "82122128", "display_name": "Route de Drize, Vessy, Veyrier, Genève, 1256, Schweiz/Suisse/Svizzera/Svizra", "category": "highway", "type": "secondary", "latlong": "46.17028997565014,6.140090623861507" }, "geometry": { "type": "Point", "coordinates": [ 6.140090623861507, 46.170289975650142 ] } },
{ "type": "Feature", "properties": { "Address": "172, route de Ferney", "Country": "Switzerland", "State": "Geneva", "result_num": "0", "osm_id": "5244109", "display_name": "Route de Ferney, Le Grand-Saconnex, Genève, 1218, Schweiz/Suisse/Svizzera/Svizra", "category": "highway", "type": "primary", "latlong": "46.246648117728235,6.1224395197560195" }, "geometry": { "type": "Point", "coordinates": [ 6.12243951975602, 46.246648117728235 ] } },
{ "type": "Feature", "properties": { "Address": "58, rue de Moillebeau", "Country": "Switzerland", "State": "Geneva", "result_num": "0", "osm_id": "187023241", "display_name": "58, Rue de Moillebeau, Moillebeau, Petit-Saconnex et Servette, Genève, 1209, Schweiz/Suisse/Svizzera/Svizra", "category": "building", "type": "apartments", "latlong": "46.2226434,6.130947748095593" }, "geometry": { "type": "Point", "coordinates": [ 6.130947748095593, 46.2226434 ] } },
{ "type": "Feature", "properties": { "Address": "65, rue de Lausanne", "Country": "Switzerland", "State": "Geneva", "result_num": "0", "osm_id": "9310136143", "display_name": "Ali baba kebab, 65, Rue de Lausanne, Les Pâquis, Pâquis, Genève, 1202, Schweiz/Suisse/Svizzera/Svizra", "category": "amenity", "type": "fast_food", "latlong": "46.2154555,6.146781" }, "geometry": { "type": "Point", "coordinates": [ 6.146781, 46.2154555 ] } },
{ "type": "Feature", "properties": { "Address": "32, chemin des Colombettes", "Country": "Switzerland", "State": "Geneva", "result_num": "0", "osm_id": "72041817", "display_name": "GBI, 32, Chemin des Colombettes, Moillebeau, Petit-Saconnex et Servette, Genève, 1202, Schweiz/Suisse/Svizzera/Svizra", "category": "office", "type": "yes", "latlong": "46.221660899999996,6.1361341" }, "geometry": { "type": "Point", "coordinates": [ 6.1361341, 46.2216609 ] } },
{ "type": "Feature", "properties": { "Address": "13, rue Calvin", "Country": "Switzerland", "State": "Geneva", "result_num": "0", "osm_id": "1223270658", "display_name": "13, Rue Jean-Calvin, Cité, Genève, 1204, Schweiz/Suisse/Svizzera/Svizra", "category": "place", "type": "house", "latlong": "46.2020132,6.1472435" }, "geometry": { "type": "Point", "coordinates": [ 6.1472435, 46.2020132 ] } },
{ "type": "Feature", "properties": { "Address": "14, rue de Hollande", "Country": "Switzerland", "State": "Geneva", "result_num": "0", "osm_id": "1361159817", "display_name": "14, Rue de Hollande, Cité, Genève, 1204, Schweiz/Suisse/Svizzera/Svizra", "category": "place", "type": "house", "latlong": "46.2024555,6.1422899" }, "geometry": { "type": "Point", "coordinates": [ 6.1422899, 46.2024555 ] } },
{ "type": "Feature", "properties": { "Address": "78, rue Montchoisy", "Country": "Switzerland", "State": "Geneva", "result_num": "0", "osm_id": "3790084778", "display_name": "Baba Tandoori, 78, Rue de Montchoisy, Les Eaux-Vives, Eaux-Vives, Genève, 1207, Schweiz/Suisse/Svizzera/Svizra", "category": "amenity", "type": "restaurant", "latlong": "46.205359,6.1642861" }, "geometry": { "type": "Point", "coordinates": [ 6.1642861, 46.205359 ] } },
{ "type": "Feature", "properties": { "Address": "1201 Geneva", "Country": "Switzerland", "State": "Geneva", "result_num": "0", "osm_id": "", "display_name": "1201, Grottes et Saint-Gervais, Genève, Schweiz/Suisse/Svizzera/Svizra", "category": "place", "type": "postcode", "latlong": "46.20978775819793,6.145179992836041" }, "geometry": { "type": "Point", "coordinates": [ 6.145179992836041, 46.209787758197933 ] } },
{ "type": "Feature", "properties": { "Address": "37, quai Wilson", "Country": "Switzerland", "State": "Geneva", "result_num": "0", "osm_id": "179052876", "display_name": "The Woodward, 37, Quai Wilson, Les Pâquis, Pâquis, Genève, 1201, Schweiz/Suisse/Svizzera/Svizra", "category": "tourism", "type": "hotel", "latlong": "46.2121074,6.152287299999999" }, "geometry": { "type": "Point", "coordinates": [ 6.1522873, 46.2121074 ] } },
{ "type": "Feature", "properties": { "Address": "1, rue Varembé", "Country": "Switzerland", "State": "Geneva", "result_num": "0", "osm_id": "2301041572", "display_name": "1, Rue de Varembé, Le Petit-Saconnex, Petit-Saconnex et Servette, Genève, 1202, Schweiz/Suisse/Svizzera/Svizra", "category": "place", "type": "house", "latlong": "46.2211768,6.1397034" }, "geometry": { "type": "Point", "coordinates": [ 6.1397034, 46.2211768 ] } },
{ "type": "Feature", "properties": { "Address": "1, rue de Varembé", "Country": "Switzerland", "State": "Geneva", "result_num": "0", "osm_id": "2301041572", "display_name": "1, Rue de Varembé, Le Petit-Saconnex, Petit-Saconnex et Servette, Genève, 1202, Schweiz/Suisse/Svizzera/Svizra", "category": "place", "type": "house", "latlong": "46.2211768,6.1397034" }, "geometry": { "type": "Point", "coordinates": [ 6.1397034, 46.2211768 ] } },
{ "type": "Feature", "properties": { "Address": "Palais Wilson", "Country": "Switzerland", "State": "Geneva", "result_num": "0", "osm_id": "82681867", "display_name": "Palais Wilson, 51, Quai Wilson, Les Pâquis, Pâquis, Genève, 1201, Schweiz/Suisse/Svizzera/Svizra", "category": "building", "type": "yes", "latlong": "46.2148896,6.151057799999999" }, "geometry": { "type": "Point", "coordinates": [ 6.1510578, 46.2148896 ] } },
{ "type": "Feature", "properties": { "Address": "56, route de Vandoeuvres", "Country": "Switzerland", "State": "Geneva", "result_num": "0", "osm_id": "135807344", "display_name": "56, Route de Vandoeuvres, Vandœuvres, Genève, 1223, Schweiz/Suisse/Svizzera/Svizra", "category": "building", "type": "yes", "latlong": "46.213759100000004,6.1900387443941245" }, "geometry": { "type": "Point", "coordinates": [ 6.190038744394124, 46.2137591 ] } },
{ "type": "Feature", "properties": { "Address": "11, rue d'Italie", "Country": "Switzerland", "State": "Geneva", "result_num": "0", "osm_id": "968533005", "display_name": "11, Rue d'Italie, Les Eaux-Vives, Eaux-Vives, Genève, 1204, Schweiz/Suisse/Svizzera/Svizra", "category": "place", "type": "house", "latlong": "46.2014481,6.1520461" }, "geometry": { "type": "Point", "coordinates": [ 6.1520461, 46.2014481 ] } },
{ "type": "Feature", "properties": { "Address": "114, rue du Rhône", "Country": "Switzerland", "State": "Geneva", "result_num": "0", "osm_id": "3671958603", "display_name": "114, Rue du Rhône, Les Eaux-Vives, Eaux-Vives, Genève, 1207, Schweiz/Suisse/Svizzera/Svizra", "category": "place", "type": "house", "latlong": "46.2026089,6.1542065" }, "geometry": { "type": "Point", "coordinates": [ 6.1542065, 46.2026089 ] } },
{ "type": "Feature", "properties": { "Address": "Palais Wilson?", "Country": "Switzerland", "State": "Geneva", "result_num": "0", "osm_id": "82681867", "display_name": "Palais Wilson, 51, Quai Wilson, Les Pâquis, Pâquis, Genève, 1201, Schweiz/Suisse/Svizzera/Svizra", "category": "building", "type": "yes", "latlong": "46.2148896,6.151057799999999" }, "geometry": { "type": "Point", "coordinates": [ 6.1510578, 46.2148896 ] } },
{ "type": "Feature", "properties": { "Address": "7, avenue Krieg", "Country": "Switzerland", "State": "Geneva", "result_num": "0", "osm_id": "2184252578", "display_name": "7, Avenue Krieg, Florissant, Champel, Genève, 1208, Schweiz/Suisse/Svizzera/Svizra", "category": "place", "type": "house", "latlong": "46.1950342,6.1634299" }, "geometry": { "type": "Point", "coordinates": [ 6.1634299, 46.1950342 ] } },
{ "type": "Feature", "properties": { "Address": "40, rue du Stand", "Country": "Switzerland", "State": "Geneva", "result_num": "0", "osm_id": "81446361", "display_name": "40, Rue du Stand, Jonction, Genève, 8973, Schweiz/Suisse/Svizzera/Svizra", "category": "building", "type": "yes", "latlong": "46.2032646,6.138239527701466" }, "geometry": { "type": "Point", "coordinates": [ 6.138239527701466, 46.2032646 ] } },
{ "type": "Feature", "properties": { "Address": "6, place de la Taconnerie", "Country": "Switzerland", "State": "Geneva", "result_num": "0", "osm_id": "6466685554", "display_name": "Crêperie St-Pierre, 6, Place de la Taconnerie, Cité, Genève, 1204, Schweiz/Suisse/Svizzera/Svizra", "category": "amenity", "type": "restaurant", "latlong": "46.2007795,6.1479269" }, "geometry": { "type": "Point", "coordinates": [ 6.1479269, 46.2007795 ] } },
{ "type": "Feature", "properties": { "Address": "18, passage du Terraillet", "Country": "Switzerland", "State": "Geneva", "result_num": "0", "osm_id": "80725756", "display_name": "Passage du Terraillet, Cité, Genève, 1204, Schweiz/Suisse/Svizzera/Svizra", "category": "highway", "type": "footway", "latlong": "46.20303074329712,6.146527647158018" }, "geometry": { "type": "Point", "coordinates": [ 6.146527647158018, 46.20303074329712 ] } },
{ "type": "Feature", "properties": { "Address": "Petit Lancy", "Country": "Switzerland", "State": "Geneva", "result_num": "0", "osm_id": "2813507701", "display_name": "Petit-Lancy, Lancy, Genève, 1213, Schweiz/Suisse/Svizzera/Svizra", "category": "place", "type": "suburb", "latlong": "46.1909747,6.1200687" }, "geometry": { "type": "Point", "coordinates": [ 6.1200687, 46.1909747 ] } },
{ "type": "Feature", "properties": { "Address": "2, rue Tertasse", "Country": "Switzerland", "State": "Geneva", "result_num": "0", "osm_id": "1078782851", "display_name": "2, Rue de la Tertasse, Cité, Genève, 1204, Schweiz/Suisse/Svizzera/Svizra", "category": "place", "type": "house", "latlong": "46.2025054,6.1443486" }, "geometry": { "type": "Point", "coordinates": [ 6.1443486, 46.2025054 ] } },
{ "type": "Feature", "properties": { "Address": "ILO", "Country": "Switzerland", "State": "Geneva", "result_num": "0", "osm_id": "14363931", "display_name": "Organisation internationale du travail, Avenue Appia, Pâquis, Le Grand-Saconnex, Genève, 1209, Schweiz/Suisse/Svizzera/Svizra", "category": "building", "type": "commercial", "latlong": "46.229200000000006,6.134382411822797" }, "geometry": { "type": "Point", "coordinates": [ 6.134382411822797, 46.2292 ] } },
{ "type": "Feature", "properties": { "Address": "63, rue de Lausanne", "Country": "Switzerland", "State": "Geneva", "result_num": "0", "osm_id": "2320885437", "display_name": "63, Rue de Lausanne, Les Pâquis, Pâquis, Genève, 1202, Schweiz/Suisse/Svizzera/Svizra", "category": "place", "type": "house", "latlong": "46.215256,6.1466625" }, "geometry": { "type": "Point", "coordinates": [ 6.1466625, 46.215256 ] } },
{ "type": "Feature", "properties": { "Address": "Palais des Nations", "Country": "Switzerland", "State": "Geneva", "result_num": "0", "osm_id": "1204850778", "display_name": "Palais des Nations, 8 - 14, Avenue de la Paix, Sécheron, Pâquis, Genève, 1202, Schweiz/Suisse/Svizzera/Svizra", "category": "office", "type": "government", "latlong": "46.225705500000004,6.140806439130429" }, "geometry": { "type": "Point", "coordinates": [ 6.140806439130429, 46.2257055 ] } },
{ "type": "Feature", "properties": { "Address": "Palais Eynard", "Country": "Switzerland", "State": "Geneva", "result_num": "0", "osm_id": "79027872", "display_name": "Palais Eynard, Rue de la Croix-Rouge, Cité, Genève, 1204, Schweiz/Suisse/Svizzera/Svizra", "category": "amenity", "type": "university", "latlong": "46.19927255,6.147214809593029" }, "geometry": { "type": "Point", "coordinates": [ 6.147214809593029, 46.19927255 ] } },
{ "type": "Feature", "properties": { "Address": "avenue Appia", "Country": "Switzerland", "State": "Geneva", "result_num": "0", "osm_id": "216933591", "display_name": "Avenue Appia, Pregny, Pregny-Chambésy, Genève, 1292, Schweiz/Suisse/Svizzera/Svizra", "category": "highway", "type": "residential", "latlong": "46.23356109104507,6.13207567387479" }, "geometry": { "type": "Point", "coordinates": [ 6.13207567387479, 46.233561091045068 ] } },
{ "type": "Feature", "properties": { "Address": "72, rue de Lausanne", "Country": "Switzerland", "State": "Geneva", "result_num": "0", "osm_id": "3847532059", "display_name": "Oficina de empadronamiento electoral de Bolivia en el exterior, 72, Rue de Lausanne, Les Pâquis, Pâquis, Genève, 1202, Schweiz/Suisse/Svizzera/Svizra", "category": "office", "type": "government", "latlong": "46.2156988,6.1474236" }, "geometry": { "type": "Point", "coordinates": [ 6.1474236, 46.2156988 ] } },
{ "type": "Feature", "properties": { "Address": "91, rue de Servette", "Country": "Switzerland", "State": "Geneva", "result_num": "0", "osm_id": "72041838", "display_name": "Rue Denis-De-Rougemont, Moillebeau, Petit-Saconnex et Servette, Genève, 1209, Schweiz/Suisse/Svizzera/Svizra", "category": "highway", "type": "residential", "latlong": "46.22299152971064,6.134438462220423" }, "geometry": { "type": "Point", "coordinates": [ 6.134438462220423, 46.22299152971064 ] } },
{ "type": "Feature", "properties": { "Address": "1, avenue de la Grenade", "Country": "Switzerland", "State": "Geneva", "result_num": "0", "osm_id": "3673001650", "display_name": "1, Avenue de la Grenade, Les Eaux-Vives, Eaux-Vives, Genève, 1207, Schweiz/Suisse/Svizzera/Svizra", "category": "place", "type": "house", "latlong": "46.2064543,6.1603055" }, "geometry": { "type": "Point", "coordinates": [ 6.1603055, 46.2064543 ] } },
{ "type": "Feature", "properties": { "Address": "30, chemin des Colombettes", "Country": "Switzerland", "State": "Geneva", "result_num": "0", "osm_id": "275315176", "display_name": "Chemin des Colombettes, Moillebeau, Petit-Saconnex et Servette, Genève, 1202, Schweiz/Suisse/Svizzera/Svizra", "category": "highway", "type": "residential", "latlong": "46.221785045268525,6.135812661570429" }, "geometry": { "type": "Point", "coordinates": [ 6.135812661570429, 46.221785045268525 ] } },
{ "type": "Feature", "properties": { "Address": "5, rue Robert de Traz", "Country": "Switzerland", "State": "Geneva", "result_num": "0", "osm_id": "2184252545", "display_name": "5, Rue Robert-de-Traz, Florissant, Champel, Genève, 1208, Schweiz/Suisse/Svizzera/Svizra", "category": "place", "type": "house", "latlong": "46.1938446,6.1626542" }, "geometry": { "type": "Point", "coordinates": [ 6.1626542, 46.1938446 ] } },
{ "type": "Feature", "properties": { "Address": "8-10, rue de Hesse", "Country": "Switzerland", "State": "Geneva", "result_num": "0", "osm_id": "8160962", "display_name": "Rue de Hesse, Cité, Genève, 1204, Schweiz/Suisse/Svizzera/Svizra", "category": "highway", "type": "residential", "latlong": "46.20262917552404,6.142282125948889" }, "geometry": { "type": "Point", "coordinates": [ 6.142282125948889, 46.202629175524038 ] } },
{ "type": "Feature", "properties": { "Address": "14, rue de l'Ancien Port", "Country": "Switzerland", "State": "Geneva", "result_num": "0", "osm_id": "2092509286", "display_name": "14, Rue de l'Ancien-Port, Les Pâquis, Pâquis, Genève, 1201, Schweiz/Suisse/Svizzera/Svizra", "category": "place", "type": "house", "latlong": "46.2123296,6.1501818" }, "geometry": { "type": "Point", "coordinates": [ 6.1501818, 46.2123296 ] } },
{ "type": "Feature", "properties": { "Address": "24, avenue Krieg", "Country": "Switzerland", "State": "Geneva", "result_num": "0", "osm_id": "2184252134", "display_name": "24, Avenue Krieg, Florissant, Champel, Genève, 1208, Schweiz/Suisse/Svizzera/Svizra", "category": "place", "type": "house", "latlong": "46.195364,6.1623052" }, "geometry": { "type": "Point", "coordinates": [ 6.1623052, 46.195364 ] } },
{ "type": "Feature", "properties": { "Address": "98, rue de Saint-Jean", "Country": "Switzerland", "State": "Geneva", "result_num": "0", "osm_id": "2173533493", "display_name": "Fédération des Entreprises Romandes, 98, Rue de Saint-Jean, Saint-Jean et Charmilles, Genève, 1201, Schweiz/Suisse/Svizzera/Svizra", "category": "place", "type": "house", "latlong": "46.2062479,6.1379182" }, "geometry": { "type": "Point", "coordinates": [ 6.1379182, 46.2062479 ] } },
{ "type": "Feature", "properties": { "Address": "2, rue de Candolle", "Country": "Switzerland", "State": "Geneva", "result_num": "0", "osm_id": "1372126175", "display_name": "2, Rue De-Candolle, Cité, Genève, 1205, Schweiz/Suisse/Svizzera/Svizra", "category": "place", "type": "house", "latlong": "46.1990749,6.1434531" }, "geometry": { "type": "Point", "coordinates": [ 6.1434531, 46.1990749 ] } },
{ "type": "Feature", "properties": { "Address": "12, Chemin Rieu", "Country": "Switzerland", "State": "Geneva", "result_num": "0", "osm_id": "182090240", "display_name": "Mediterranean Shipping Company (MSC) Headquarters, 12, Chemin Rieu, Florissant, Champel, Genève, 1208, Schweiz/Suisse/Svizzera/Svizra", "category": "building", "type": "yes", "latlong": "46.194718699999996,6.1650024" }, "geometry": { "type": "Point", "coordinates": [ 6.1650024, 46.1947187 ] } },
{ "type": "Feature", "properties": { "Address": "92, rue du Rhône", "Country": "Switzerland", "State": "Geneva", "result_num": "0", "osm_id": "1284766978", "display_name": "92, Rue du Rhône, Cité, Genève, 1204, Schweiz/Suisse/Svizzera/Svizra", "category": "place", "type": "house", "latlong": "46.2033676,6.1508181" }, "geometry": { "type": "Point", "coordinates": [ 6.1508181, 46.2033676 ] } },
{ "type": "Feature", "properties": { "Address": "31, rue de l'Athénée", "Country": "Switzerland", "State": "Geneva", "result_num": "0", "osm_id": "2169446047", "display_name": "31, Rue de l'Athénée, Champel, Genève, 1206, Schweiz/Suisse/Svizzera/Svizra", "category": "place", "type": "house", "latlong": "46.1951211,6.1543307" }, "geometry": { "type": "Point", "coordinates": [ 6.1543307, 46.1951211 ] } },
{ "type": "Feature", "properties": { "Address": "4/6, cour Saint-Pierre", "Country": "Switzerland", "State": "Geneva", "result_num": "0", "osm_id": "82133242", "display_name": "Cour de Saint-Pierre, Cité, Genève, 1204, Schweiz/Suisse/Svizzera/Svizra", "category": "highway", "type": "pedestrian", "latlong": "46.201288399999996,6.1478817" }, "geometry": { "type": "Point", "coordinates": [ 6.1478817, 46.2012884 ] } },
{ "type": "Feature", "properties": { "Address": "157, route de Florissant", "Country": "Switzerland", "State": "Geneva", "result_num": "0", "osm_id": "105691138", "display_name": "Route de Florissant, Malagnou, Chêne-Bougeries, Genève, 1231, Schweiz/Suisse/Svizzera/Svizra", "category": "highway", "type": "secondary", "latlong": "46.188135614438615,6.169062307567869" }, "geometry": { "type": "Point", "coordinates": [ 6.169062307567869, 46.188135614438615 ] } },
{ "type": "Feature", "properties": { "Address": "157, route Florissant", "Country": "Switzerland", "State": "Geneva", "result_num": "0", "osm_id": "105691138", "display_name": "Route de Florissant, Malagnou, Chêne-Bougeries, Genève, 1231, Schweiz/Suisse/Svizzera/Svizra", "category": "highway", "type": "secondary", "latlong": "46.188135614438615,6.169062307567869" }, "geometry": { "type": "Point", "coordinates": [ 6.169062307567869, 46.188135614438615 ] } },
{ "type": "Feature", "properties": { "Address": "Thonex", "Country": "Switzerland", "State": "Geneva", "result_num": "0", "osm_id": "1685534", "display_name": "Thônex, Genève, 1226, Schweiz/Suisse/Svizzera/Svizra", "category": "boundary", "type": "administrative", "latlong": "46.1884304,6.1983858" }, "geometry": { "type": "Point", "coordinates": [ 6.1983858, 46.1884304 ] } },
{ "type": "Feature", "properties": { "Address": "2, place Reverdin", "Country": "Switzerland", "State": "Geneva", "result_num": "0", "osm_id": "182940208", "display_name": "2, Place Reverdin, Champel, Genève, 1206, Schweiz/Suisse/Svizzera/Svizra", "category": "building", "type": "yes", "latlong": "46.19023915,6.1508107184075325" }, "geometry": { "type": "Point", "coordinates": [ 6.150810718407532, 46.19023915 ] } },
{ "type": "Feature", "properties": { "Address": "5, avenue de Champel", "Country": "Switzerland", "State": "Geneva", "result_num": "0", "osm_id": "342567039", "display_name": "Avenue de Champel, Champel, Genève, 1206, Schweiz/Suisse/Svizzera/Svizra", "category": "highway", "type": "tertiary", "latlong": "46.192267575789586,6.153250639257685" }, "geometry": { "type": "Point", "coordinates": [ 6.153250639257685, 46.192267575789586 ] } },
{ "type": "Feature", "properties": { "Address": "6, cours des Bastions", "Country": "Switzerland", "State": "Geneva", "result_num": "0", "osm_id": "1447128189", "display_name": "6, Cours des Bastions, Cité, Genève, 1205, Schweiz/Suisse/Svizzera/Svizra", "category": "place", "type": "house", "latlong": "46.1979359,6.1477951" }, "geometry": { "type": "Point", "coordinates": [ 6.1477951, 46.1979359 ] } },
{ "type": "Feature", "properties": { "Address": "2, place Longemalle", "Country": "Switzerland", "State": "Geneva", "result_num": "0", "osm_id": "1291782889", "display_name": "2, Place de Longemalle, Cité, Genève, 1204, Schweiz/Suisse/Svizzera/Svizra", "category": "place", "type": "house", "latlong": "46.2035221,6.1499319" }, "geometry": { "type": "Point", "coordinates": [ 6.1499319, 46.2035221 ] } },
{ "type": "Feature", "properties": { "Address": "9, rue du Prince", "Country": "Switzerland", "State": "Geneva", "result_num": "0", "osm_id": "1284259702", "display_name": "9, Rue du Prince, Cité, Genève, 1204, Schweiz/Suisse/Svizzera/Svizra", "category": "place", "type": "house", "latlong": "46.2025281,6.1509683" }, "geometry": { "type": "Point", "coordinates": [ 6.1509683, 46.2025281 ] } },
{ "type": "Feature", "properties": { "Address": "11, rue de Cornavin", "Country": "Switzerland", "State": "Geneva", "result_num": "0", "osm_id": "1933508026", "display_name": "11, Rue de Cornavin, Grottes et Saint-Gervais, Genève, 1201, Schweiz/Suisse/Svizzera/Svizra", "category": "place", "type": "house", "latlong": "46.2078142,6.1422358" }, "geometry": { "type": "Point", "coordinates": [ 6.1422358, 46.2078142 ] } },
{ "type": "Feature", "properties": { "Address": "12, chemin Sous-Bois", "Country": "Switzerland", "State": "Geneva", "result_num": "0", "osm_id": "84817102", "display_name": "12, Chemin de Sous-Bois, Grand-Lancy, Lancy, Genève, 1212, Schweiz/Suisse/Svizzera/Svizra", "category": "building", "type": "yes", "latlong": "46.184136300000006,6.118830139822134" }, "geometry": { "type": "Point", "coordinates": [ 6.118830139822134, 46.1841363 ] } },
{ "type": "Feature", "properties": { "Address": "26, route de Malagnou", "Country": "Switzerland", "State": "Geneva", "result_num": "0", "osm_id": "2184252167", "display_name": "26, Route de Malagnou, Florissant, Champel, Genève, 1207, Schweiz/Suisse/Svizzera/Svizra", "category": "place", "type": "house", "latlong": "46.197459,6.1598788" }, "geometry": { "type": "Point", "coordinates": [ 6.1598788, 46.197459 ] } },
{ "type": "Feature", "properties": { "Address": "7, avenue de la Paix", "Country": "Switzerland", "State": "Geneva", "result_num": "0", "osm_id": "2357215032", "display_name": "7, Avenue de la Paix, Sécheron, Pâquis, Genève, 1202, Schweiz/Suisse/Svizzera/Svizra", "category": "place", "type": "house", "latlong": "46.2236084,6.1474439" }, "geometry": { "type": "Point", "coordinates": [ 6.1474439, 46.2236084 ] } },
{ "type": "Feature", "properties": { "Address": "8, rue Saint-Léger", "Country": "Switzerland", "State": "Geneva", "result_num": "0", "osm_id": "5073077", "display_name": "Rue Saint-Léger, Cité, Genève, 1205, Schweiz/Suisse/Svizzera/Svizra", "category": "highway", "type": "residential", "latlong": "46.19729826305554,6.145450476484312" }, "geometry": { "type": "Point", "coordinates": [ 6.145450476484312, 46.197298263055544 ] } },
{ "type": "Feature", "properties": { "Address": "4, place Neuve", "Country": "Switzerland", "State": "Geneva", "result_num": "0", "osm_id": "8367389", "display_name": "Place de Neuve, Cité, Genève, 1204, Schweiz/Suisse/Svizzera/Svizra", "category": "highway", "type": "tertiary", "latlong": "46.2009987479972,6.142932349720704" }, "geometry": { "type": "Point", "coordinates": [ 6.142932349720704, 46.200998747997197 ] } },
{ "type": "Feature", "properties": { "Address": "15, rue Lévrier", "Country": "Switzerland", "State": "Geneva", "result_num": "0", "osm_id": "223075409", "display_name": "15, Rue Grange-Lévrier, Le Bouchet, Châtelaine, Vernier, Genève, 1220, Schweiz/Suisse/Svizzera/Svizra", "category": "building", "type": "apartments", "latlong": "46.22203575,6.110007590345764" }, "geometry": { "type": "Point", "coordinates": [ 6.110007590345764, 46.22203575 ] } },
{ "type": "Feature", "properties": { "Address": "29, route de Malagnou", "Country": "Switzerland", "State": "Geneva", "result_num": "0", "osm_id": "2184252194", "display_name": "29, Route de Malagnou, Florissant, Champel, Genève, 1208, Schweiz/Suisse/Svizzera/Svizra", "category": "place", "type": "house", "latlong": "46.1977292,6.1611119" }, "geometry": { "type": "Point", "coordinates": [ 6.1611119, 46.1977292 ] } },
{ "type": "Feature", "properties": { "Address": "15, route de Florissant", "Country": "Switzerland", "State": "Geneva", "result_num": "0", "osm_id": "2098457018", "display_name": "15, Route de Florissant, Florissant, Champel, Genève, 1206, Schweiz/Suisse/Svizzera/Svizra", "category": "place", "type": "house", "latlong": "46.1959364,6.1565575" }, "geometry": { "type": "Point", "coordinates": [ 6.1565575, 46.1959364 ] } },
{ "type": "Feature", "properties": { "Address": "57, route du Chêne", "Country": "Switzerland", "State": "Geneva", "result_num": "0", "osm_id": "345729058", "display_name": "Route du Vallon, Chêne-Bougeries, Genève, 1224, Schweiz/Suisse/Svizzera/Svizra", "category": "highway", "type": "secondary", "latlong": "46.1934648905111,6.183781068083434" }, "geometry": { "type": "Point", "coordinates": [ 6.183781068083434, 46.193464890511102 ] } },
{ "type": "Feature", "properties": { "Address": "28, avenue Pictet de Rochemont", "Country": "Switzerland", "State": "Geneva", "result_num": "0", "osm_id": "2367680930", "display_name": "28, Avenue Pictet-de-Rochemont, Les Eaux-Vives, Eaux-Vives, Genève, 1207, Schweiz/Suisse/Svizzera/Svizra", "category": "place", "type": "house", "latlong": "46.2003016,6.1621811" }, "geometry": { "type": "Point", "coordinates": [ 6.1621811, 46.2003016 ] } },
{ "type": "Feature", "properties": { "Address": "75, rue de Lyon", "Country": "Switzerland", "State": "Geneva", "result_num": "0", "osm_id": "79327061", "display_name": "75, Rue de Lyon, Saint-Jean et Charmilles, Genève, 1203, Schweiz/Suisse/Svizzera/Svizra", "category": "building", "type": "apartments", "latlong": "46.208187699999996,6.126044299999999" }, "geometry": { "type": "Point", "coordinates": [ 6.1260443, 46.2081877 ] } },
{ "type": "Feature", "properties": { "Address": "6, place Molard", "Country": "Switzerland", "State": "Geneva", "result_num": "0", "osm_id": "1282981296", "display_name": "6, Place du Molard, Cité, Genève, 1204, Schweiz/Suisse/Svizzera/Svizra", "category": "place", "type": "house", "latlong": "46.2033833,6.1477029" }, "geometry": { "type": "Point", "coordinates": [ 6.1477029, 46.2033833 ] } },
{ "type": "Feature", "properties": { "Address": "6, rue du Mont de Sion", "Country": "Switzerland", "State": "Geneva", "result_num": "0", "osm_id": "2157985962", "display_name": "6, Rue du Mont-de-Sion, Cité, Genève, 1206, Schweiz/Suisse/Svizzera/Svizra", "category": "place", "type": "house", "latlong": "46.197326,6.153586" }, "geometry": { "type": "Point", "coordinates": [ 6.153586, 46.197326 ] } },
{ "type": "Feature", "properties": { "Address": "2, quai du Cheval-Blanc", "Country": "Switzerland", "State": "Geneva", "result_num": "0", "osm_id": "2102901720", "display_name": "2, Quai du Cheval-Blanc, Acacias, Carouge, Genève, 1227, Schweiz/Suisse/Svizzera/Svizra", "category": "place", "type": "house", "latlong": "46.1886935,6.1407312" }, "geometry": { "type": "Point", "coordinates": [ 6.1407312, 46.1886935 ] } },
{ "type": "Feature", "properties": { "Address": "17, rue Necker", "Country": "Switzerland", "State": "Geneva", "result_num": "0", "osm_id": "2117800735", "display_name": "17, Rue Necker, Grottes et Saint-Gervais, Genève, 1201, Schweiz/Suisse/Svizzera/Svizra", "category": "place", "type": "house", "latlong": "46.208193,6.1413842" }, "geometry": { "type": "Point", "coordinates": [ 6.1413842, 46.208193 ] } },
{ "type": "Feature", "properties": { "Address": "1, avenue de Miremont", "Country": "Switzerland", "State": "Geneva", "result_num": "0", "osm_id": "2105838285", "display_name": "1, Avenue de Miremont, Florissant, Champel, Genève, 1206, Schweiz/Suisse/Svizzera/Svizra", "category": "place", "type": "house", "latlong": "46.191821,6.1537653" }, "geometry": { "type": "Point", "coordinates": [ 6.1537653, 46.191821 ] } },
{ "type": "Feature", "properties": { "Address": "100, rue du Rhône", "Country": "Switzerland", "State": "Geneva", "result_num": "0", "osm_id": "968576852", "display_name": "Roche Bobois, 100, Rue du Rhône, Cité, Genève, 1204, Schweiz/Suisse/Svizzera/Svizra", "category": "shop", "type": "furniture", "latlong": "46.2030571,6.1519538" }, "geometry": { "type": "Point", "coordinates": [ 6.1519538, 46.2030571 ] } },
{ "type": "Feature", "properties": { "Address": "1-3, rue de Chantepoulet", "Country": "Switzerland", "State": "Geneva", "result_num": "0", "osm_id": "2330012332", "display_name": "Restaurant le Mandarin, 1-3, Rue de Chantepoulet, Grottes et Saint-Gervais, Genève, 1201, Schweiz/Suisse/Svizzera/Svizra", "category": "amenity", "type": "restaurant", "latlong": "46.2078438,6.1453875" }, "geometry": { "type": "Point", "coordinates": [ 6.1453875, 46.2078438 ] } },
{ "type": "Feature", "properties": { "Address": "37, rue de Vermont", "Country": "Switzerland", "State": "Geneva", "result_num": "0", "osm_id": "2301041919", "display_name": "37, Rue de Vermont, La Servette, Petit-Saconnex et Servette, Genève, 1202, Schweiz/Suisse/Svizzera/Svizra", "category": "place", "type": "house", "latlong": "46.2188614,6.1373341" }, "geometry": { "type": "Point", "coordinates": [ 6.1373341, 46.2188614 ] } },
{ "type": "Feature", "properties": { "Address": "8, rue Petitot", "Country": "Switzerland", "State": "Geneva", "result_num": "0", "osm_id": "1361158905", "display_name": "8, Rue Jean-Petitot, Cité, Genève, 1204, Schweiz/Suisse/Svizzera/Svizra", "category": "place", "type": "house", "latlong": "46.2031083,6.1416056" }, "geometry": { "type": "Point", "coordinates": [ 6.1416056, 46.2031083 ] } },
{ "type": "Feature", "properties": { "Address": "64, rue du Stand", "Country": "Switzerland", "State": "Geneva", "result_num": "0", "osm_id": "1307096239", "display_name": "64, Rue du Stand, Cité, Genève, 1204, Schweiz/Suisse/Svizzera/Svizra", "category": "place", "type": "house", "latlong": "46.2035743,6.1415197" }, "geometry": { "type": "Point", "coordinates": [ 6.1415197, 46.2035743 ] } },
{ "type": "Feature", "properties": { "Address": "8, rue Charles Humbert", "Country": "Switzerland", "State": "Geneva", "result_num": "0", "osm_id": "180369040", "display_name": "8, Rue Charles-Humbert, Jonction, Genève, 1205, Schweiz/Suisse/Svizzera/Svizra", "category": "building", "type": "hospital", "latlong": "46.20014555,6.1381666642415755" }, "geometry": { "type": "Point", "coordinates": [ 6.138166664241576, 46.20014555 ] } },
{ "type": "Feature", "properties": { "Address": "4/6, rue Charles Bonnet", "Country": "Switzerland", "State": "Geneva", "result_num": "0", "osm_id": "131432479", "display_name": "Rue Charles-Bonnet, Cité, Genève, 1206, Schweiz/Suisse/Svizzera/Svizra", "category": "highway", "type": "residential", "latlong": "46.196781319704264,6.151940171967708" }, "geometry": { "type": "Point", "coordinates": [ 6.151940171967708, 46.196781319704264 ] } },
{ "type": "Feature", "properties": { "Address": "39, route de Malagnou", "Country": "Switzerland", "State": "Geneva", "result_num": "0", "osm_id": "2184252349", "display_name": "39, Route de Malagnou, Florissant, Champel, Genève, 1208, Schweiz/Suisse/Svizzera/Svizra", "category": "place", "type": "house", "latlong": "46.197107,6.1626598" }, "geometry": { "type": "Point", "coordinates": [ 6.1626598, 46.197107 ] } },
{ "type": "Feature", "properties": { "Address": "20, rue du Marché", "Country": "Switzerland", "State": "Geneva", "result_num": "0", "osm_id": "1282981447", "display_name": "20, Rue du Marché, Cité, Genève, 1204, Schweiz/Suisse/Svizzera/Svizra", "category": "place", "type": "house", "latlong": "46.2030224,6.1465581" }, "geometry": { "type": "Point", "coordinates": [ 6.1465581, 46.2030224 ] } },
{ "type": "Feature", "properties": { "Address": "27-29, rue de la Coulouvrenière", "Country": "Switzerland", "State": "Geneva", "result_num": "0", "osm_id": "643247420", "display_name": "Rue de la Coulouvrenière, Jonction, Genève, 8973, Schweiz/Suisse/Svizzera/Svizra", "category": "highway", "type": "residential", "latlong": "46.20357454555875,6.134903054540073" }, "geometry": { "type": "Point", "coordinates": [ 6.134903054540073, 46.203574545558752 ] } },
{ "type": "Feature", "properties": { "Address": "rue Alcide Jentzer", "Country": "Switzerland", "State": "Geneva", "result_num": "0", "osm_id": "793390268", "display_name": "Rue Alcide-Jentzer, Plainpalais, Genève, 1206, Schweiz/Suisse/Svizzera/Svizra", "category": "highway", "type": "residential", "latlong": "46.19158201713918,6.147442727028081" }, "geometry": { "type": "Point", "coordinates": [ 6.147442727028081, 46.191582017139183 ] } },
{ "type": "Feature", "properties": { "Address": "2, place de la Taconnerie", "Country": "Switzerland", "State": "Geneva", "result_num": "0", "osm_id": "1246099287", "display_name": "2, Place de la Taconnerie, Cité, Genève, 1204, Schweiz/Suisse/Svizzera/Svizra", "category": "place", "type": "house", "latlong": "46.2008725,6.1478692" }, "geometry": { "type": "Point", "coordinates": [ 6.1478692, 46.2008725 ] } },
{ "type": "Feature", "properties": { "Address": "51, route de Florissant", "Country": "Switzerland", "State": "Geneva", "result_num": "0", "osm_id": "2098457062", "display_name": "51, Route de Florissant, Florissant, Champel, Genève, 1206, Schweiz/Suisse/Svizzera/Svizra", "category": "place", "type": "house", "latlong": "46.1942144,6.1603479" }, "geometry": { "type": "Point", "coordinates": [ 6.1603479, 46.1942144 ] } },
{ "type": "Feature", "properties": { "Address": "3, rue du Marché", "Country": "Switzerland", "State": "Geneva", "result_num": "0", "osm_id": "1282981502", "display_name": "3, Rue du Marché, Cité, Genève, 1204, Schweiz/Suisse/Svizzera/Svizra", "category": "place", "type": "house", "latlong": "46.2034261,6.146175" }, "geometry": { "type": "Point", "coordinates": [ 6.146175, 46.2034261 ] } },
{ "type": "Feature", "properties": { "Address": "5, plateau de Champel", "Country": "Switzerland", "State": "Geneva", "result_num": "0", "osm_id": "7955754765", "display_name": "Plateau de Champel, Champel, Genève, 1206, Schweiz/Suisse/Svizzera/Svizra", "category": "place", "type": "square", "latlong": "46.1929293,6.1540583" }, "geometry": { "type": "Point", "coordinates": [ 6.1540583, 46.1929293 ] } },
{ "type": "Feature", "properties": { "Address": "30, avenue Krieg", "Country": "Switzerland", "State": "Geneva", "result_num": "0", "osm_id": "2184252242", "display_name": "30, Avenue Krieg, Florissant, Champel, Genève, 1208, Schweiz/Suisse/Svizzera/Svizra", "category": "place", "type": "house", "latlong": "46.1955253,6.1612637" }, "geometry": { "type": "Point", "coordinates": [ 6.1612637, 46.1955253 ] } },
{ "type": "Feature", "properties": { "Address": "Place des Nations ", "Country": "Switzerland", "State": "Geneva", "result_num": "0", "osm_id": "12920590", "display_name": "Place des Nations, Sécheron, Pâquis, Genève, Schweiz/Suisse/Svizzera/Svizra", "category": "place", "type": "square", "latlong": "46.22255555,6.138819513335475" }, "geometry": { "type": "Point", "coordinates": [ 6.138819513335475, 46.22255555 ] } },
{ "type": "Feature", "properties": { "Address": "Place des Nations", "Country": "Switzerland", "State": "Geneva", "result_num": "0", "osm_id": "12920590", "display_name": "Place des Nations, Sécheron, Pâquis, Genève, Schweiz/Suisse/Svizzera/Svizra", "category": "place", "type": "square", "latlong": "46.22255555,6.138819513335475" }, "geometry": { "type": "Point", "coordinates": [ 6.138819513335475, 46.22255555 ] } },
{ "type": "Feature", "properties": { "Address": "154, rue de Lausanne", "Country": "Switzerland", "State": "Geneva", "result_num": "0", "osm_id": "25797395", "display_name": "Centre William Rappard, 154, Rue de Lausanne, Sécheron, Pâquis, Genève, 1202, Schweiz/Suisse/Svizzera/Svizra", "category": "building", "type": "public", "latlong": "46.224259950000004,6.149469076219038" }, "geometry": { "type": "Point", "coordinates": [ 6.149469076219038, 46.22425995 ] } },
{ "type": "Feature", "properties": { "Address": "8, cours des Bastions", "Country": "Switzerland", "State": "Geneva", "result_num": "0", "osm_id": "1447128140", "display_name": "8, Cours des Bastions, Cité, Genève, 1205, Schweiz/Suisse/Svizzera/Svizra", "category": "place", "type": "house", "latlong": "46.197808,6.1479837" }, "geometry": { "type": "Point", "coordinates": [ 6.1479837, 46.197808 ] } },
{ "type": "Feature", "properties": { "Address": "132, rue de Lausanne", "Country": "Switzerland", "State": "Geneva", "result_num": "0", "osm_id": "83746965", "display_name": "Villa Barton, 132, Rue de Lausanne, Sécheron, Pâquis, Genève, 1202, Schweiz/Suisse/Svizzera/Svizra", "category": "building", "type": "university", "latlong": "46.2218359,6.151028671797003" }, "geometry": { "type": "Point", "coordinates": [ 6.151028671797003, 46.2218359 ] } },
{ "type": "Feature", "properties": { "Address": "68, rue du Rhône", "Country": "Switzerland", "State": "Geneva", "result_num": "0", "osm_id": "493020296", "display_name": "Rue du Rhône, Cité, Genève, 1204, Schweiz/Suisse/Svizzera/Svizra", "category": "highway", "type": "unclassified", "latlong": "46.203980099999995,6.1483916999999995" }, "geometry": { "type": "Point", "coordinates": [ 6.1483917, 46.2039801 ] } },
{ "type": "Feature", "properties": { "Address": "34, avenue Weber", "Country": "Switzerland", "State": "Geneva", "result_num": "0", "osm_id": "179881399", "display_name": "34, Avenue Théodore-Weber, Les Eaux-Vives, Eaux-Vives, Genève, 1208, Schweiz/Suisse/Svizzera/Svizra", "category": "building", "type": "yes", "latlong": "46.1973159,6.1636123" }, "geometry": { "type": "Point", "coordinates": [ 6.1636123, 46.1973159 ] } },
{ "type": "Feature", "properties": { "Address": "54bis, route des Acacias", "Country": "Switzerland", "State": "Geneva", "result_num": "0", "osm_id": "11207265438", "display_name": "osteoptimum, 54bis, Route des Acacias, Les Acacias, Acacias, Genève, 1227, Schweiz/Suisse/Svizzera/Svizra", "category": "healthcare", "type": "alternative", "latlong": "46.1885272,6.1331646" }, "geometry": { "type": "Point", "coordinates": [ 6.1331646, 46.1885272 ] } },
{ "type": "Feature", "properties": { "Address": "7, rue Carteret", "Country": "Switzerland", "State": "Geneva", "result_num": "0", "osm_id": "3673858038", "display_name": "7, Rue Antoine-Carteret, Grottes et Saint-Gervais, Genève, 1211, Schweiz/Suisse/Svizzera/Svizra", "category": "place", "type": "house", "latlong": "46.2117101,6.1322753" }, "geometry": { "type": "Point", "coordinates": [ 6.1322753, 46.2117101 ] } },
{ "type": "Feature", "properties": { "Address": "26, avenue de Champel", "Country": "Switzerland", "State": "Geneva", "result_num": "0", "osm_id": "2105838378", "display_name": "26, Avenue de Champel, Champel, Genève, 1206, Schweiz/Suisse/Svizzera/Svizra", "category": "place", "type": "house", "latlong": "46.1911014,6.1531538" }, "geometry": { "type": "Point", "coordinates": [ 6.1531538, 46.1911014 ] } },
{ "type": "Feature", "properties": { "Address": "22, rue Saint-Léger", "Country": "Switzerland", "State": "Geneva", "result_num": "0", "osm_id": "5073077", "display_name": "Rue Saint-Léger, Cité, Genève, 1205, Schweiz/Suisse/Svizzera/Svizra", "category": "highway", "type": "residential", "latlong": "46.19729826305554,6.145450476484312" }, "geometry": { "type": "Point", "coordinates": [ 6.145450476484312, 46.197298263055544 ] } },
{ "type": "Feature", "properties": { "Address": "6, Château- Banquet", "Country": "Switzerland", "State": "Geneva", "result_num": "0", "osm_id": "2115499051", "display_name": "6, Parc du Château-Banquet, Sécheron, Pâquis, Genève, 1202, Schweiz/Suisse/Svizzera/Svizra", "category": "place", "type": "house", "latlong": "46.2170163,6.1487894" }, "geometry": { "type": "Point", "coordinates": [ 6.1487894, 46.2170163 ] } },
{ "type": "Feature", "properties": { "Address": "27, route de Florissant", "Country": "Switzerland", "State": "Geneva", "result_num": "0", "osm_id": "105691138", "display_name": "Route de Florissant, Malagnou, Chêne-Bougeries, Genève, 1231, Schweiz/Suisse/Svizzera/Svizra", "category": "highway", "type": "secondary", "latlong": "46.188135614438615,6.169062307567869" }, "geometry": { "type": "Point", "coordinates": [ 6.169062307567869, 46.188135614438615 ] } },
{ "type": "Feature", "properties": { "Address": "15, rue Pierre Fatio", "Country": "Switzerland", "State": "Geneva", "result_num": "0", "osm_id": "176571502", "display_name": "15, Rue Pierre-Fatio, Les Eaux-Vives, Eaux-Vives, Genève, 1204, Schweiz/Suisse/Svizzera/Svizra", "category": "building", "type": "yes", "latlong": "46.202348799999996,6.1540667" }, "geometry": { "type": "Point", "coordinates": [ 6.1540667, 46.2023488 ] } },
{ "type": "Feature", "properties": { "Address": "41, rue de Zurich", "Country": "Switzerland", "State": "Geneva", "result_num": "0", "osm_id": "2112116550", "display_name": "41, Rue de Zurich, Les Pâquis, Pâquis, Genève, 1201, Schweiz/Suisse/Svizzera/Svizra", "category": "place", "type": "house", "latlong": "46.2120535,6.145599" }, "geometry": { "type": "Point", "coordinates": [ 6.145599, 46.2120535 ] } },
{ "type": "Feature", "properties": { "Address": "4, rue Saint-Victor", "Country": "Switzerland", "State": "Geneva", "result_num": "0", "osm_id": "2120962680", "display_name": "4, Rue Saint-Victor, La Praille, Carouge, Genève, 1227, Schweiz/Suisse/Svizzera/Svizra", "category": "place", "type": "house", "latlong": "46.186181,6.139872" }, "geometry": { "type": "Point", "coordinates": [ 6.139872, 46.186181 ] } },
{ "type": "Feature", "properties": { "Address": "3, avenue Miremont", "Country": "Switzerland", "State": "Geneva", "result_num": "0", "osm_id": "2105838396", "display_name": "3, Avenue de Miremont, Florissant, Champel, Genève, 1206, Schweiz/Suisse/Svizzera/Svizra", "category": "place", "type": "house", "latlong": "46.1916105,6.1538345" }, "geometry": { "type": "Point", "coordinates": [ 6.1538345, 46.1916105 ] } },
{ "type": "Feature", "properties": { "Address": "1, rue du Rhône", "Country": "Switzerland", "State": "Geneva", "result_num": "0", "osm_id": "1099885528", "display_name": "1, Rue du Rhône, Cité, Genève, 1204, Schweiz/Suisse/Svizzera/Svizra", "category": "place", "type": "house", "latlong": "46.2044492,6.1439446" }, "geometry": { "type": "Point", "coordinates": [ 6.1439446, 46.2044492 ] } },
{ "type": "Feature", "properties": { "Address": "25, Grand'Rue", "Country": "Switzerland", "State": "Geneva", "result_num": "0", "osm_id": "1221132497", "display_name": "25, Grand-Rue, Cité, Genève, 1204, Schweiz/Suisse/Svizzera/Svizra", "category": "place", "type": "house", "latlong": "46.2016735,6.1462437" }, "geometry": { "type": "Point", "coordinates": [ 6.1462437, 46.2016735 ] } },
{ "type": "Feature", "properties": { "Address": "26, avenue Beau Séjour", "Country": "Switzerland", "State": "Geneva", "result_num": "0", "osm_id": "3685030376", "display_name": "26, Avenue de Beau-Séjour, Champel, Genève, 1206, Schweiz/Suisse/Svizzera/Svizra", "category": "place", "type": "house", "latlong": "46.1886559,6.1498477" }, "geometry": { "type": "Point", "coordinates": [ 6.1498477, 46.1886559 ] } },
{ "type": "Feature", "properties": { "Address": "54bis, route de Acacias", "Country": "Switzerland", "State": "Geneva", "result_num": "0", "osm_id": "3690908429", "display_name": "54bis, Route des Acacias, Les Acacias, Acacias, Carouge, Genève, 1227, Schweiz/Suisse/Svizzera/Svizra", "category": "place", "type": "house", "latlong": "46.1885744,6.1330739" }, "geometry": { "type": "Point", "coordinates": [ 6.1330739, 46.1885744 ] } },
{ "type": "Feature", "properties": { "Address": "30, quai Wilson", "Country": "Switzerland", "State": "Geneva", "result_num": "0", "osm_id": "76565892", "display_name": "Quai Wilson, Les Pâquis, Pâquis, Genève, 1201, Schweiz/Suisse/Svizzera/Svizra", "category": "highway", "type": "primary", "latlong": "46.21450527372411,6.151978356078152" }, "geometry": { "type": "Point", "coordinates": [ 6.151978356078152, 46.214505273724107 ] } },
{ "type": "Feature", "properties": { "Address": "3, avenue de Miremont", "Country": "Switzerland", "State": "Geneva", "result_num": "0", "osm_id": "2105838396", "display_name": "3, Avenue de Miremont, Florissant, Champel, Genève, 1206, Schweiz/Suisse/Svizzera/Svizra", "category": "place", "type": "house", "latlong": "46.1916105,6.1538345" }, "geometry": { "type": "Point", "coordinates": [ 6.1538345, 46.1916105 ] } },
{ "type": "Feature", "properties": { "Address": "52, rue des Pâquis", "Country": "Switzerland", "State": "Geneva", "result_num": "0", "osm_id": "2092481485", "display_name": "52, Rue des Pâquis, Les Pâquis, Pâquis, Genève, 1201, Schweiz/Suisse/Svizzera/Svizra", "category": "place", "type": "house", "latlong": "46.2148656,6.1508891" }, "geometry": { "type": "Point", "coordinates": [ 6.1508891, 46.2148656 ] } },
{ "type": "Feature", "properties": { "Address": "18, rue du Marché", "Country": "Switzerland", "State": "Geneva", "result_num": "0", "osm_id": "1282981459", "display_name": "18, Rue du Marché, Cité, Genève, 1204, Schweiz/Suisse/Svizzera/Svizra", "category": "place", "type": "house", "latlong": "46.2030381,6.1464978" }, "geometry": { "type": "Point", "coordinates": [ 6.1464978, 46.2030381 ] } },
{ "type": "Feature", "properties": { "Address": "1, avenue de la Paix", "Country": "Switzerland", "State": "Geneva", "result_num": "0", "osm_id": "2357214883", "display_name": "1, Avenue de la Paix, Sécheron, Pâquis, Genève, 1202, Schweiz/Suisse/Svizzera/Svizra", "category": "place", "type": "house", "latlong": "46.223759,6.1481144" }, "geometry": { "type": "Point", "coordinates": [ 6.1481144, 46.223759 ] } },
{ "type": "Feature", "properties": { "Address": "62, route de Chêne", "Country": "Switzerland", "State": "Geneva", "result_num": "0", "osm_id": "3686454870", "display_name": "62, Route de Chêne, Les Eaux-Vives, Eaux-Vives, Genève, 1208, Schweiz/Suisse/Svizzera/Svizra", "category": "place", "type": "house", "latlong": "46.1987451,6.1727843" }, "geometry": { "type": "Point", "coordinates": [ 6.1727843, 46.1987451 ] } },
{ "type": "Feature", "properties": { "Address": "12, chemin Surville (Petit Lancy)", "Country": "Switzerland", "State": "Geneva", "result_num": "0", "osm_id": "49585261", "display_name": "Chemin de Surville, Petit-Lancy, Lancy, Genève, 1227, Schweiz/Suisse/Svizzera/Svizra", "category": "highway", "type": "residential", "latlong": "46.192601823695036,6.1249283523432485" }, "geometry": { "type": "Point", "coordinates": [ 6.124928352343249, 46.192601823695036 ] } },
{ "type": "Feature", "properties": { "Address": "24, boulevard des Philosophes", "Country": "Switzerland", "State": "Geneva", "result_num": "0", "osm_id": "2068621832", "display_name": "24, Boulevard des Philosophes, Cité, Genève, 1205, Schweiz/Suisse/Svizzera/Svizra", "category": "place", "type": "house", "latlong": "46.1963285,6.148516" }, "geometry": { "type": "Point", "coordinates": [ 6.148516, 46.1963285 ] } },
{ "type": "Feature", "properties": { "Address": "58, rue du Stand", "Country": "Switzerland", "State": "Geneva", "result_num": "0", "osm_id": "1307096257", "display_name": "58, Rue du Stand, Cité, Genève, 1204, Schweiz/Suisse/Svizzera/Svizra", "category": "place", "type": "house", "latlong": "46.2035139,6.1406679" }, "geometry": { "type": "Point", "coordinates": [ 6.1406679, 46.2035139 ] } },
{ "type": "Feature", "properties": { "Address": "15, rue Charles Galland", "Country": "Switzerland", "State": "Geneva", "result_num": "0", "osm_id": "79066894", "display_name": "15, Rue Charles-Galland, Cité, Genève, 1206, Schweiz/Suisse/Svizzera/Svizra", "category": "building", "type": "yes", "latlong": "46.1978453,6.1544457" }, "geometry": { "type": "Point", "coordinates": [ 6.1544457, 46.1978453 ] } },
{ "type": "Feature", "properties": { "Address": "4, place du Molard", "Country": "Switzerland", "State": "Geneva", "result_num": "0", "osm_id": "1282981549", "display_name": "4, Place du Molard, Cité, Genève, 1204, Schweiz/Suisse/Svizzera/Svizra", "category": "place", "type": "house", "latlong": "46.2037111,6.147909" }, "geometry": { "type": "Point", "coordinates": [ 6.147909, 46.2037111 ] } },
{ "type": "Feature", "properties": { "Address": "9, rue Pierre Fatio", "Country": "Switzerland", "State": "Geneva", "result_num": "0", "osm_id": "170672369", "display_name": "Rue Pierre-Fatio, Les Eaux-Vives, Eaux-Vives, Genève, 1207, Schweiz/Suisse/Svizzera/Svizra", "category": "highway", "type": "tertiary", "latlong": "46.2035883,6.1543532999999995" }, "geometry": { "type": "Point", "coordinates": [ 6.1543533, 46.2035883 ] } },
{ "type": "Feature", "properties": { "Address": "2, quai Gustave Ador", "Country": "Switzerland", "State": "Geneva", "result_num": "0", "osm_id": "4199186707", "display_name": "Touring Club Suisse, 2, Quai Gustave-Ador, Les Eaux-Vives, Eaux-Vives, Genève, 1207, Schweiz/Suisse/Svizzera/Svizra", "category": "amenity", "type": "recycling", "latlong": "46.2042596,6.1552518" }, "geometry": { "type": "Point", "coordinates": [ 6.1552518, 46.2042596 ] } },
{ "type": "Feature", "properties": { "Address": "2, rue de Varembé", "Country": "Switzerland", "State": "Geneva", "result_num": "0", "osm_id": "83666157", "display_name": "International Telecommunications Union, 2, Rue de Varembé, Moillebeau, Petit-Saconnex et Servette, Genève, 1202, Schweiz/Suisse/Svizzera/Svizra", "category": "building", "type": "yes", "latlong": "46.2207529,6.1370268999999995" }, "geometry": { "type": "Point", "coordinates": [ 6.1370269, 46.2207529 ] } },
{ "type": "Feature", "properties": { "Address": "18, boulevard James Fazy", "Country": "Switzerland", "State": "Geneva", "result_num": "0", "osm_id": "179367092", "display_name": "18, Boulevard James-Fazy, Grottes et Saint-Gervais, Genève, 1201, Schweiz/Suisse/Svizzera/Svizra", "category": "building", "type": "apartments", "latlong": "46.208177,6.141087499999999" }, "geometry": { "type": "Point", "coordinates": [ 6.1410875, 46.208177 ] } },
{ "type": "Feature", "properties": { "Address": "3, rue du Conseil Général", "Country": "Switzerland", "State": "Geneva", "result_num": "0", "osm_id": "1372126188", "display_name": "3, Rue du Conseil-Général, Cité, Genève, 1205, Schweiz/Suisse/Svizzera/Svizra", "category": "place", "type": "house", "latlong": "46.1989106,6.1431134" }, "geometry": { "type": "Point", "coordinates": [ 6.1431134, 46.1989106 ] } },
{ "type": "Feature", "properties": { "Address": "43, quai Wilson", "Country": "Switzerland", "State": "Geneva", "result_num": "0", "osm_id": "2092481450", "display_name": "43, Quai Wilson, Les Pâquis, Pâquis, Genève, 1201, Schweiz/Suisse/Svizzera/Svizra", "category": "place", "type": "house", "latlong": "46.2134314,6.1520446" }, "geometry": { "type": "Point", "coordinates": [ 6.1520446, 46.2134314 ] } },
{ "type": "Feature", "properties": { "Address": "16, rue du Mont-Blanc", "Country": "Switzerland", "State": "Geneva", "result_num": "0", "osm_id": "1962244194", "display_name": "16, Rue du Mont-Blanc, Grottes et Saint-Gervais, Genève, 1201, Schweiz/Suisse/Svizzera/Svizra", "category": "place", "type": "house", "latlong": "46.2080888,6.1458022" }, "geometry": { "type": "Point", "coordinates": [ 6.1458022, 46.2080888 ] } },
{ "type": "Feature", "properties": { "Address": "16, rue du Mont Blanc", "Country": "Switzerland", "State": "Geneva", "result_num": "0", "osm_id": "1962244194", "display_name": "16, Rue du Mont-Blanc, Grottes et Saint-Gervais, Genève, 1201, Schweiz/Suisse/Svizzera/Svizra", "category": "place", "type": "house", "latlong": "46.2080888,6.1458022" }, "geometry": { "type": "Point", "coordinates": [ 6.1458022, 46.2080888 ] } },
{ "type": "Feature", "properties": { "Address": "3, rue Viollier", "Country": "Switzerland", "State": "Geneva", "result_num": "0", "osm_id": "2367680938", "display_name": "3, Rue Viollier, Les Eaux-Vives, Eaux-Vives, Genève, 1208, Schweiz/Suisse/Svizzera/Svizra", "category": "place", "type": "house", "latlong": "46.2018066,6.1641691" }, "geometry": { "type": "Point", "coordinates": [ 6.1641691, 46.2018066 ] } },
{ "type": "Feature", "properties": { "Address": "121, rue de Lausanne", "Country": "Switzerland", "State": "Geneva", "result_num": "0", "osm_id": "6466560487", "display_name": "Azar & Co, 121, Rue de Lausanne, Sécheron, Pâquis, Genève, 1202, Schweiz/Suisse/Svizzera/Svizra", "category": "amenity", "type": "restaurant", "latlong": "46.2207585,6.1495803" }, "geometry": { "type": "Point", "coordinates": [ 6.1495803, 46.2207585 ] } },
{ "type": "Feature", "properties": { "Address": "8, Charles Humbert", "Country": "Switzerland", "State": "Geneva", "result_num": "0", "osm_id": "180369040", "display_name": "8, Rue Charles-Humbert, Jonction, Genève, 1205, Schweiz/Suisse/Svizzera/Svizra", "category": "building", "type": "hospital", "latlong": "46.20014555,6.1381666642415755" }, "geometry": { "type": "Point", "coordinates": [ 6.138166664241576, 46.20014555 ] } },
{ "type": "Feature", "properties": { "Address": "16, boulevard des tranchées", "Country": "Switzerland", "State": "Geneva", "result_num": "0", "osm_id": "79568375", "display_name": "16, Boulevard des Tranchées, Champel, Genève, 1206, Schweiz/Suisse/Svizzera/Svizra", "category": "building", "type": "apartments", "latlong": "46.1964803,6.1526643" }, "geometry": { "type": "Point", "coordinates": [ 6.1526643, 46.1964803 ] } },
{ "type": "Feature", "properties": { "Address": "29-31, rue des Délices", "Country": "Switzerland", "State": "Geneva", "result_num": "0", "osm_id": "61839982", "display_name": "Rue des Délices, Saint-Jean et Charmilles, Genève, 1211, Schweiz/Suisse/Svizzera/Svizra", "category": "highway", "type": "tertiary", "latlong": "46.207291159208886,6.134066042362911" }, "geometry": { "type": "Point", "coordinates": [ 6.134066042362911, 46.207291159208886 ] } },
{ "type": "Feature", "properties": { "Address": "15, rue Necker", "Country": "Switzerland", "State": "Geneva", "result_num": "0", "osm_id": "2117800734", "display_name": "15, Rue Necker, Grottes et Saint-Gervais, Genève, 1201, Schweiz/Suisse/Svizzera/Svizra", "category": "place", "type": "house", "latlong": "46.2080907,6.1412687" }, "geometry": { "type": "Point", "coordinates": [ 6.1412687, 46.2080907 ] } },
{ "type": "Feature", "properties": { "Address": "24, parc Château Banquet", "Country": "Switzerland", "State": "Geneva", "result_num": "0", "osm_id": "179206498", "display_name": "24, Parc du Château-Banquet, Sécheron, Pâquis, Genève, 1202, Schweiz/Suisse/Svizzera/Svizra", "category": "building", "type": "apartments", "latlong": "46.21814445,6.149106895833333" }, "geometry": { "type": "Point", "coordinates": [ 6.149106895833333, 46.21814445 ] } },
{ "type": "Feature", "properties": { "Address": "hotel Metropole", "Country": "Switzerland", "State": "Geneva", "result_num": "0", "osm_id": "79420976", "display_name": "Hôtel Métropole, 34, Quai du Général-Guisan, Cité, Genève, 1204, Schweiz/Suisse/Svizzera/Svizra", "category": "tourism", "type": "hotel", "latlong": "46.2033852,6.152105199999999" }, "geometry": { "type": "Point", "coordinates": [ 6.1521052, 46.2033852 ] } },
{ "type": "Feature", "properties": { "Address": "1-3, rue de Varembé", "Country": "Switzerland", "State": "Geneva", "result_num": "0", "osm_id": "789798067", "display_name": "Rue de Varembé, Moillebeau, Petit-Saconnex et Servette, Genève, 1202, Schweiz/Suisse/Svizzera/Svizra", "category": "highway", "type": "unclassified", "latlong": "46.220713241856835,6.138738238825401" }, "geometry": { "type": "Point", "coordinates": [ 6.138738238825401, 46.220713241856835 ] } },
{ "type": "Feature", "properties": { "Address": "12, rue Michel Chauvet", "Country": "Switzerland", "State": "Geneva", "result_num": "0", "osm_id": "2194822356", "display_name": "12, Rue Michel-Chauvet, Florissant, Champel, Genève, 1207, Schweiz/Suisse/Svizzera/Svizra", "category": "place", "type": "house", "latlong": "46.1976808,6.1570812" }, "geometry": { "type": "Point", "coordinates": [ 6.1570812, 46.1976808 ] } },
{ "type": "Feature", "properties": { "Address": "2, rue Fendt", "Country": "Switzerland", "State": "Geneva", "result_num": "0", "osm_id": "3676401116", "display_name": "2, Rue Fendt, Grottes et Saint-Gervais, Genève, 1201, Schweiz/Suisse/Svizzera/Svizra", "category": "place", "type": "house", "latlong": "46.2107327,6.1413592" }, "geometry": { "type": "Point", "coordinates": [ 6.1413592, 46.2107327 ] } },
{ "type": "Feature", "properties": { "Address": "?", "Country": "Switzerland", "State": "Geneva", "result_num": "0", "osm_id": "1685488", "display_name": "Genève, Schweiz/Suisse/Svizzera/Svizra", "category": "boundary", "type": "administrative", "latlong": "46.2017559,6.1466014" }, "geometry": { "type": "Point", "coordinates": [ 6.1466014, 46.2017559 ] } },
{ "type": "Feature", "properties": { "Address": "7, rue Gautier", "Country": "Switzerland", "State": "Geneva", "result_num": "0", "osm_id": "2092509386", "display_name": "7, Rue Jean-Antoine-Gautier, Les Pâquis, Pâquis, Genève, 1201, Schweiz/Suisse/Svizzera/Svizra", "category": "place", "type": "house", "latlong": "46.2136344,6.1508071" }, "geometry": { "type": "Point", "coordinates": [ 6.1508071, 46.2136344 ] } },
{ "type": "Feature", "properties": { "Address": "10, rue Saint Léger", "Country": "Switzerland", "State": "Geneva", "result_num": "0", "osm_id": "5073077", "display_name": "Rue Saint-Léger, Cité, Genève, 1205, Schweiz/Suisse/Svizzera/Svizra", "category": "highway", "type": "residential", "latlong": "46.19729826305554,6.145450476484312" }, "geometry": { "type": "Point", "coordinates": [ 6.145450476484312, 46.197298263055544 ] } },
{ "type": "Feature", "properties": { "Address": "2, place de Châteaubriand", "Country": "Switzerland", "State": "Geneva", "result_num": "0", "osm_id": "1162984877", "display_name": "Place De-Chateaubriand, Les Pâquis, Pâquis, Genève, Schweiz/Suisse/Svizzera/Svizra", "category": "place", "type": "square", "latlong": "46.2155951,6.150476310403727" }, "geometry": { "type": "Point", "coordinates": [ 6.150476310403727, 46.2155951 ] } },
{ "type": "Feature", "properties": { "Address": "44, rue de Lausanne", "Country": "Switzerland", "State": "Geneva", "result_num": "0", "osm_id": "2113397124", "display_name": "44, Rue de Lausanne, Les Pâquis, Pâquis, Genève, 1201, Schweiz/Suisse/Svizzera/Svizra", "category": "place", "type": "house", "latlong": "46.2138171,6.1460309" }, "geometry": { "type": "Point", "coordinates": [ 6.1460309, 46.2138171 ] } },
{ "type": "Feature", "properties": { "Address": "36, avenue du Lignon", "Country": "Switzerland", "State": "Geneva", "result_num": "0", "osm_id": "210592068", "display_name": "36, Avenue du Lignon, Le Lignon, Châtelaine, Vernier, Genève, 1219, Schweiz/Suisse/Svizzera/Svizra", "category": "place", "type": "house", "latlong": "46.20268368,6.0962661" }, "geometry": { "type": "Point", "coordinates": [ 6.0962661, 46.20268368 ] } },
{ "type": "Feature", "properties": { "Address": "35, avenue de Budé", "Country": "Switzerland", "State": "Geneva", "result_num": "0", "osm_id": "2357214987", "display_name": "35, Avenue De-Budé, Le Petit-Saconnex, Petit-Saconnex et Servette, Genève, 1202, Schweiz/Suisse/Svizzera/Svizra", "category": "place", "type": "house", "latlong": "46.2254829,6.1286023" }, "geometry": { "type": "Point", "coordinates": [ 6.1286023, 46.2254829 ] } },
{ "type": "Feature", "properties": { "Address": "25, rue Pierre Fatio", "Country": "Switzerland", "State": "Geneva", "result_num": "0", "osm_id": "170672369", "display_name": "Rue Pierre-Fatio, Les Eaux-Vives, Eaux-Vives, Genève, 1207, Schweiz/Suisse/Svizzera/Svizra", "category": "highway", "type": "tertiary", "latlong": "46.2035883,6.1543532999999995" }, "geometry": { "type": "Point", "coordinates": [ 6.1543533, 46.2035883 ] } },
{ "type": "Feature", "properties": { "Address": "UNIGE", "Country": "Switzerland", "State": "Geneva", "result_num": "0", "osm_id": "172991076", "display_name": "Unige, 10BIS, Chemin d'Ecogia, Ecogia, Versoix, Genève, 1290, Schweiz/Suisse/Svizzera/Svizra", "category": "building", "type": "university", "latlong": "46.2911481,6.149846185546901" }, "geometry": { "type": "Point", "coordinates": [ 6.149846185546901, 46.2911481 ] } },
{ "type": "Feature", "properties": { "Address": "29, rue du Mont-Blanc", "Country": "Switzerland", "State": "Geneva", "result_num": "0", "osm_id": "27467964", "display_name": "Rue du Mont-Blanc, Grottes et Saint-Gervais, Genève, 1201, Schweiz/Suisse/Svizzera/Svizra", "category": "highway", "type": "pedestrian", "latlong": "46.20902873407261,6.143790178051267" }, "geometry": { "type": "Point", "coordinates": [ 6.143790178051267, 46.209028734072611 ] } },
{ "type": "Feature", "properties": { "Address": "8, rue de la Rotisserie", "Country": "Switzerland", "State": "Geneva", "result_num": "0", "osm_id": "92839172", "display_name": "8, Rue de la Rôtisserie, Cité, Genève, 1204, Schweiz/Suisse/Svizzera/Svizra", "category": "building", "type": "apartments", "latlong": "46.2027511,6.1459303" }, "geometry": { "type": "Point", "coordinates": [ 6.1459303, 46.2027511 ] } },
{ "type": "Feature", "properties": { "Address": "19, route de Malagnou", "Country": "Switzerland", "State": "Geneva", "result_num": "0", "osm_id": "2266119499", "display_name": "19, Route de Malagnou, Florissant, Champel, Genève, 1208, Schweiz/Suisse/Svizzera/Svizra", "category": "place", "type": "house", "latlong": "46.1987499,6.1598186" }, "geometry": { "type": "Point", "coordinates": [ 6.1598186, 46.1987499 ] } },
{ "type": "Feature", "properties": { "Address": "10, rue de la Madeleine", "Country": "Switzerland", "State": "Geneva", "result_num": "0", "osm_id": "1246099143", "display_name": "10, Rue de la Madeleine, Cité, Genève, 1204, Schweiz/Suisse/Svizzera/Svizra", "category": "place", "type": "house", "latlong": "46.2022026,6.1486556" }, "geometry": { "type": "Point", "coordinates": [ 6.1486556, 46.2022026 ] } },
{ "type": "Feature", "properties": { "Address": "12, rue du Vieux Collège", "Country": "Switzerland", "State": "Geneva", "result_num": "0", "osm_id": "12208505306", "display_name": "Balima Spa, 12, Rue du Vieux-Collège, Cité, Genève, 1204, Schweiz/Suisse/Svizzera/Svizra", "category": "shop", "type": "massage", "latlong": "46.2014116,6.1514001" }, "geometry": { "type": "Point", "coordinates": [ 6.1514001, 46.2014116 ] } },
{ "type": "Feature", "properties": { "Address": "10, rue de la Croix d'or", "Country": "Switzerland", "State": "Geneva", "result_num": "0", "osm_id": "1282981596", "display_name": "10, Rue de la Croix-d'Or, Cité, Genève, 1204, Schweiz/Suisse/Svizzera/Svizra", "category": "place", "type": "house", "latlong": "46.2025536,6.1491969" }, "geometry": { "type": "Point", "coordinates": [ 6.1491969, 46.2025536 ] } },
{ "type": "Feature", "properties": { "Address": "66, boulevard Carl Vogt", "Country": "Switzerland", "State": "Geneva", "result_num": "0", "osm_id": "3671421729", "display_name": "Université de Genève, 66, Boulevard Carl-Vogt, Jonction, Genève, 1200, Schweiz/Suisse/Svizzera/Svizra", "category": "amenity", "type": "university", "latlong": "46.1972358,6.136766" }, "geometry": { "type": "Point", "coordinates": [ 6.136766, 46.1972358 ] } },
{ "type": "Feature", "properties": { "Address": "19, rue de la Croix-d'or", "Country": "Switzerland", "State": "Geneva", "result_num": "0", "osm_id": "1291747245", "display_name": "19, Rue de la Croix-d'Or, Cité, Genève, 1204, Schweiz/Suisse/Svizzera/Svizra", "category": "place", "type": "house", "latlong": "46.2027122,6.1492493" }, "geometry": { "type": "Point", "coordinates": [ 6.1492493, 46.2027122 ] } },
{ "type": "Feature", "properties": { "Address": "51, Route du Chêne", "Country": "Switzerland", "State": "Geneva", "result_num": "0", "osm_id": "345729058", "display_name": "Route du Vallon, Chêne-Bougeries, Genève, 1224, Schweiz/Suisse/Svizzera/Svizra", "category": "highway", "type": "secondary", "latlong": "46.1934648905111,6.183781068083434" }, "geometry": { "type": "Point", "coordinates": [ 6.183781068083434, 46.193464890511102 ] } },
{ "type": "Feature", "properties": { "Address": "1, rue du Mont-Blanc", "Country": "Switzerland", "State": "Geneva", "result_num": "0", "osm_id": "1511888890", "display_name": "1, Rue du Mont-Blanc, Grottes et Saint-Gervais, Genève, 1201, Schweiz/Suisse/Svizzera/Svizra", "category": "place", "type": "house", "latlong": "46.2071979,6.1469829" }, "geometry": { "type": "Point", "coordinates": [ 6.1469829, 46.2071979 ] } },
{ "type": "Feature", "properties": { "Address": "46, chemin Sarasin (Grand-Saconnex)", "Country": "Switzerland", "State": "Geneva", "result_num": "0", "osm_id": "171672358", "display_name": "Chemin Edouard-Sarasin, Le Grand-Saconnex, Genève, 1218, Schweiz/Suisse/Svizzera/Svizra", "category": "highway", "type": "tertiary", "latlong": "46.231156687110655,6.1185140716059045" }, "geometry": { "type": "Point", "coordinates": [ 6.118514071605905, 46.231156687110655 ] } },
{ "type": "Feature", "properties": { "Address": "10, rue Bellot", "Country": "Switzerland", "State": "Geneva", "result_num": "0", "osm_id": "2156115232", "display_name": "10, Rue François-Bellot, Cité, Genève, 1204, Schweiz/Suisse/Svizzera/Svizra", "category": "place", "type": "house", "latlong": "46.1983562,6.1523329" }, "geometry": { "type": "Point", "coordinates": [ 6.1523329, 46.1983562 ] } },
{ "type": "Feature", "properties": { "Address": "1, rue Gevray", "Country": "Switzerland", "State": "Geneva", "result_num": "0", "osm_id": "173103141", "display_name": "Rue Abraham-Gevray, Les Pâquis, Pâquis, Genève, 1201, Schweiz/Suisse/Svizzera/Svizra", "category": "highway", "type": "residential", "latlong": "46.210877358359056,6.1497830886174745" }, "geometry": { "type": "Point", "coordinates": [ 6.149783088617474, 46.210877358359056 ] } },
{ "type": "Feature", "properties": { "Address": "7, chemin du Jura (Chambésy)", "Country": "Switzerland", "State": "Geneva", "result_num": "0", "osm_id": "75873409", "display_name": "7, Chemin du Jura, Pregny, Pregny-Chambésy, Genève, 1292, Schweiz/Suisse/Svizzera/Svizra", "category": "building", "type": "yes", "latlong": "46.24578825,6.141705805035026" }, "geometry": { "type": "Point", "coordinates": [ 6.141705805035026, 46.24578825 ] } },
{ "type": "Feature", "properties": { "Address": "Chemin des Crêts de Pregny", "Country": "Switzerland", "State": "Geneva", "result_num": "0", "osm_id": "177625458", "display_name": "Chemin des Crêts-de-Pregny, Le Grand-Saconnex, Genève, 1218, Schweiz/Suisse/Svizzera/Svizra", "category": "highway", "type": "residential", "latlong": "46.2347210520021,6.131349550697548" }, "geometry": { "type": "Point", "coordinates": [ 6.131349550697548, 46.234721052002101 ] } },
{ "type": "Feature", "properties": { "Address": "25, rue de Chantepoulet", "Country": "Switzerland", "State": "Geneva", "result_num": "0", "osm_id": "1475987063", "display_name": "25, Rue de Chantepoulet, Grottes et Saint-Gervais, Genève, 1201, Schweiz/Suisse/Svizzera/Svizra", "category": "place", "type": "house", "latlong": "46.2082017,6.1428914" }, "geometry": { "type": "Point", "coordinates": [ 6.1428914, 46.2082017 ] } },
{ "type": "Feature", "properties": { "Address": "1, rue Lamartine", "Country": "Switzerland", "State": "Geneva", "result_num": "0", "osm_id": "3673898129", "display_name": "1, Rue Lamartine, Grottes et Saint-Gervais, Genève, 1203, Schweiz/Suisse/Svizzera/Svizra", "category": "place", "type": "house", "latlong": "46.2086937,6.1285103" }, "geometry": { "type": "Point", "coordinates": [ 6.1285103, 46.2086937 ] } },
{ "type": "Feature", "properties": { "Address": "10, rue Diday", "Country": "Switzerland", "State": "Geneva", "result_num": "0", "osm_id": "28482853", "display_name": "Rue François-Diday, Cité, Genève, 1204, Schweiz/Suisse/Svizzera/Svizra", "category": "highway", "type": "residential", "latlong": "46.202893527229556,6.142766761420125" }, "geometry": { "type": "Point", "coordinates": [ 6.142766761420125, 46.202893527229556 ] } },
{ "type": "Feature", "properties": { "Address": "6, rue Eynard", "Country": "Switzerland", "State": "Geneva", "result_num": "0", "osm_id": "1447128142", "display_name": "6, Rue Jean-Gabriel-Eynard, Cité, Genève, 1205, Schweiz/Suisse/Svizzera/Svizra", "category": "place", "type": "house", "latlong": "46.1982683,6.1480622" }, "geometry": { "type": "Point", "coordinates": [ 6.1480622, 46.1982683 ] } },
{ "type": "Feature", "properties": { "Address": "Geneva", "Country": "Switzerland", "State": "Geneva", "result_num": "0", "osm_id": "1685488", "display_name": "Genève, Schweiz/Suisse/Svizzera/Svizra", "category": "boundary", "type": "administrative", "latlong": "46.2017559,6.1466014" }, "geometry": { "type": "Point", "coordinates": [ 6.1466014, 46.2017559 ] } },
{ "type": "Feature", "properties": { "Address": "5, Chemin des Iris (Cointrin)", "Country": "Switzerland", "State": "Geneva", "result_num": "0", "osm_id": "82427944", "display_name": "5, Chemin des Iris, Châtelaine, Vernier, Genève, 1220, Schweiz/Suisse/Svizzera/Svizra", "category": "building", "type": "yes", "latlong": "46.223567599999996,6.1110106116307765" }, "geometry": { "type": "Point", "coordinates": [ 6.111010611630777, 46.2235676 ] } },
{ "type": "Feature", "properties": { "Address": "11, rue Marignac", "Country": "Switzerland", "State": "Geneva", "result_num": "0", "osm_id": "180332089", "display_name": "11, Rue Marignac, Champel, Genève, 1206, Schweiz/Suisse/Svizzera/Svizra", "category": "building", "type": "yes", "latlong": "46.195618800000005,6.154121624636538" }, "geometry": { "type": "Point", "coordinates": [ 6.154121624636538, 46.1956188 ] } },
{ "type": "Feature", "properties": { "Address": "4, rue Saint Laurent", "Country": "Switzerland", "State": "Geneva", "result_num": "0", "osm_id": "3671922667", "display_name": "4, Rue Saint-Laurent, Les Eaux-Vives, Eaux-Vives, Genève, 1207, Schweiz/Suisse/Svizzera/Svizra", "category": "place", "type": "house", "latlong": "46.2001594,6.1566388" }, "geometry": { "type": "Point", "coordinates": [ 6.1566388, 46.2001594 ] } },
{ "type": "Feature", "properties": { "Address": "6, rue du Conseil Général", "Country": "Switzerland", "State": "Geneva", "result_num": "0", "osm_id": "1371468222", "display_name": "6, Rue du Conseil-Général, Cité, Genève, 1205, Schweiz/Suisse/Svizzera/Svizra", "category": "place", "type": "house", "latlong": "46.199404,6.1429065" }, "geometry": { "type": "Point", "coordinates": [ 6.1429065, 46.199404 ] } },
{ "type": "Feature", "properties": { "Address": "14, rue Créspin", "Country": "Switzerland", "State": "Geneva", "result_num": "0", "osm_id": "2098457008", "display_name": "14, Rue Crespin, Florissant, Champel, Genève, 1208, Schweiz/Suisse/Svizzera/Svizra", "category": "place", "type": "house", "latlong": "46.1950133,6.1589717" }, "geometry": { "type": "Point", "coordinates": [ 6.1589717, 46.1950133 ] } },
{ "type": "Feature", "properties": { "Address": "10, rue de la Corraterie", "Country": "Switzerland", "State": "Geneva", "result_num": "0", "osm_id": "119827757", "display_name": "Papeterie Brachard, 10, Rue de la Corraterie, Cité, Genève, 1204, Schweiz/Suisse/Svizzera/Svizra", "category": "shop", "type": "stationery", "latlong": "46.2034122,6.1428658666340095" }, "geometry": { "type": "Point", "coordinates": [ 6.142865866634009, 46.2034122 ] } },
{ "type": "Feature", "properties": { "Address": "6, rue du Rhône", "Country": "Switzerland", "State": "Geneva", "result_num": "0", "osm_id": "1083432089", "display_name": "6, Rue du Rhône, Cité, Genève, 1204, Schweiz/Suisse/Svizzera/Svizra", "category": "place", "type": "house", "latlong": "46.2044659,6.1445928" }, "geometry": { "type": "Point", "coordinates": [ 6.1445928, 46.2044659 ] } },
{ "type": "Feature", "properties": { "Address": "23, quai des Bergues", "Country": "Switzerland", "State": "Geneva", "result_num": "0", "osm_id": "1511880832", "display_name": "23, Quai des Bergues, Grottes et Saint-Gervais, Genève, 1201, Schweiz/Suisse/Svizzera/Svizra", "category": "place", "type": "house", "latlong": "46.206357,6.1451556" }, "geometry": { "type": "Point", "coordinates": [ 6.1451556, 46.206357 ] } },
{ "type": "Feature", "properties": { "Address": "94, rue des Eaux Vives", "Country": "Switzerland", "State": "Geneva", "result_num": "0", "osm_id": "81130750", "display_name": "94, Rue des Eaux-Vives, Les Eaux-Vives, Eaux-Vives, Genève, 1207, Schweiz/Suisse/Svizzera/Svizra", "category": "building", "type": "yes", "latlong": "46.2053498,6.160714788919343" }, "geometry": { "type": "Point", "coordinates": [ 6.160714788919343, 46.2053498 ] } },
{ "type": "Feature", "properties": { "Address": "53, avenue Blanc", "Country": "Switzerland", "State": "Geneva", "result_num": "0", "osm_id": "10818989602", "display_name": "Ambassade du Soudan, 53, Avenue Blanc, Sécheron, Pâquis, Genève, 1202, Schweiz/Suisse/Svizzera/Svizra", "category": "office", "type": "diplomatic", "latlong": "46.2216767,6.148214" }, "geometry": { "type": "Point", "coordinates": [ 6.148214, 46.2216767 ] } },
{ "type": "Feature", "properties": { "Address": "94, rue de Lausanne", "Country": "Switzerland", "State": "Geneva", "result_num": "0", "osm_id": "2115498921", "display_name": "94, Rue de Lausanne, Sécheron, Pâquis, Genève, 1202, Schweiz/Suisse/Svizzera/Svizra", "category": "place", "type": "house", "latlong": "46.2176683,6.1483826" }, "geometry": { "type": "Point", "coordinates": [ 6.1483826, 46.2176683 ] } },
{ "type": "Feature", "properties": { "Address": "12, rue Adrien Lachenal", "Country": "Switzerland", "State": "Geneva", "result_num": "0", "osm_id": "178167180", "display_name": "12, Rue Adrien-Lachenal, Les Eaux-Vives, Eaux-Vives, Genève, 1207, Schweiz/Suisse/Svizzera/Svizra", "category": "building", "type": "yes", "latlong": "46.2001533,6.1557704" }, "geometry": { "type": "Point", "coordinates": [ 6.1557704, 46.2001533 ] } },
{ "type": "Feature", "properties": { "Address": "3, rue Beaumont", "Country": "Switzerland", "State": "Geneva", "result_num": "0", "osm_id": "2194822438", "display_name": "3, Rue de-Beaumont, Florissant, Champel, Genève, 1207, Schweiz/Suisse/Svizzera/Svizra", "category": "place", "type": "house", "latlong": "46.1977831,6.1557485" }, "geometry": { "type": "Point", "coordinates": [ 6.1557485, 46.1977831 ] } },
{ "type": "Feature", "properties": { "Address": "Troinex", "Country": "Switzerland", "State": "Geneva", "result_num": "0", "osm_id": "1685535", "display_name": "Troinex, Genève, 1256, Schweiz/Suisse/Svizzera/Svizra", "category": "boundary", "type": "administrative", "latlong": "46.1616537,6.147819" }, "geometry": { "type": "Point", "coordinates": [ 6.147819, 46.1616537 ] } },
{ "type": "Feature", "properties": { "Address": "4, Chemin des Clochettes", "Country": "Switzerland", "State": "Geneva", "result_num": "0", "osm_id": "2088375427", "display_name": "4, Chemin des Clochettes, Florissant, Champel, Genève, 1206, Schweiz/Suisse/Svizzera/Svizra", "category": "place", "type": "house", "latlong": "46.1873023,6.1577306" }, "geometry": { "type": "Point", "coordinates": [ 6.1577306, 46.1873023 ] } },
{ "type": "Feature", "properties": { "Address": "48, chemin des Coudriers", "Country": "Switzerland", "State": "Geneva", "result_num": "0", "osm_id": "2357214985", "display_name": "48, Chemin des Coudriers, Le Grand-Saconnex, Genève, 1218, Schweiz/Suisse/Svizzera/Svizra", "category": "place", "type": "house", "latlong": "46.2240587,6.1212716" }, "geometry": { "type": "Point", "coordinates": [ 6.1212716, 46.2240587 ] } },
{ "type": "Feature", "properties": { "Address": "Satigny", "Country": "Switzerland", "State": "Geneva", "result_num": "0", "osm_id": "1685531", "display_name": "Satigny, Genève, 1242, Schweiz/Suisse/Svizzera/Svizra", "category": "boundary", "type": "administrative", "latlong": "46.2157703,6.0330885" }, "geometry": { "type": "Point", "coordinates": [ 6.0330885, 46.2157703 ] } },
{ "type": "Feature", "properties": { "Address": "10, parc du Château Banquet", "Country": "Switzerland", "State": "Geneva", "result_num": "0", "osm_id": "2115499005", "display_name": "10, Parc du Château-Banquet, Sécheron, Pâquis, Genève, 1202, Schweiz/Suisse/Svizzera/Svizra", "category": "place", "type": "house", "latlong": "46.2167734,6.1493426" }, "geometry": { "type": "Point", "coordinates": [ 6.1493426, 46.2167734 ] } },
{ "type": "Feature", "properties": { "Address": "10, Château Banquet", "Country": "Switzerland", "State": "Geneva", "result_num": "0", "osm_id": "2115499005", "display_name": "10, Parc du Château-Banquet, Sécheron, Pâquis, Genève, 1202, Schweiz/Suisse/Svizzera/Svizra", "category": "place", "type": "house", "latlong": "46.2167734,6.1493426" }, "geometry": { "type": "Point", "coordinates": [ 6.1493426, 46.2167734 ] } },
{ "type": "Feature", "properties": { "Address": "78, rue de Montchoisy", "Country": "Switzerland", "State": "Geneva", "result_num": "0", "osm_id": "3790084778", "display_name": "Baba Tandoori, 78, Rue de Montchoisy, Les Eaux-Vives, Eaux-Vives, Genève, 1207, Schweiz/Suisse/Svizzera/Svizra", "category": "amenity", "type": "restaurant", "latlong": "46.205359,6.1642861" }, "geometry": { "type": "Point", "coordinates": [ 6.1642861, 46.205359 ] } },
{ "type": "Feature", "properties": { "Address": "2, chemin Louis-Dunant", "Country": "Switzerland", "State": "Geneva", "result_num": "0", "osm_id": "3679301204", "display_name": "2, Chemin Camille-Vidart, Moillebeau, Petit-Saconnex et Servette, Genève, 1202, Schweiz/Suisse/Svizzera/Svizra", "category": "place", "type": "house", "latlong": "46.2194084,6.1380131" }, "geometry": { "type": "Point", "coordinates": [ 6.1380131, 46.2194084 ] } },
{ "type": "Feature", "properties": { "Address": "2, chemin Louis Dunant", "Country": "Switzerland", "State": "Geneva", "result_num": "0", "osm_id": "3679301204", "display_name": "2, Chemin Camille-Vidart, Moillebeau, Petit-Saconnex et Servette, Genève, 1202, Schweiz/Suisse/Svizzera/Svizra", "category": "place", "type": "house", "latlong": "46.2194084,6.1380131" }, "geometry": { "type": "Point", "coordinates": [ 6.1380131, 46.2194084 ] } },
{ "type": "Feature", "properties": { "Address": "11, chemin de la Florence", "Country": "Switzerland", "State": "Geneva", "result_num": "0", "osm_id": "134658150", "display_name": "11, Chemin de la Florence, Florissant, Champel, Genève, 1208, Schweiz/Suisse/Svizzera/Svizra", "category": "building", "type": "yes", "latlong": "46.19267935,6.16962925041538" }, "geometry": { "type": "Point", "coordinates": [ 6.16962925041538, 46.19267935 ] } },
{ "type": "Feature", "properties": { "Address": "7, rue des Granges", "Country": "Switzerland", "State": "Geneva", "result_num": "0", "osm_id": "1223264459", "display_name": "7, Rue des Granges, Cité, Genève, 1204, Schweiz/Suisse/Svizzera/Svizra", "category": "place", "type": "house", "latlong": "46.201577,6.1452174" }, "geometry": { "type": "Point", "coordinates": [ 6.1452174, 46.201577 ] } },
{ "type": "Feature", "properties": { "Address": "3, rue Petitot", "Country": "Switzerland", "State": "Geneva", "result_num": "0", "osm_id": "5156178", "display_name": "Rue Jean-Petitot, Cité, Genève, 1204, Schweiz/Suisse/Svizzera/Svizra", "category": "highway", "type": "residential", "latlong": "46.20312755577873,6.14072099893935" }, "geometry": { "type": "Point", "coordinates": [ 6.14072099893935, 46.203127555778728 ] } },
{ "type": "Feature", "properties": { "Address": "6, rue Petitot", "Country": "Switzerland", "State": "Geneva", "result_num": "0", "osm_id": "1361163573", "display_name": "6, Rue Jean-Petitot, Cité, Genève, 1204, Schweiz/Suisse/Svizzera/Svizra", "category": "place", "type": "house", "latlong": "46.2030709,6.1410572" }, "geometry": { "type": "Point", "coordinates": [ 6.1410572, 46.2030709 ] } },
{ "type": "Feature", "properties": { "Address": "10, rue Saint-Léger", "Country": "Switzerland", "State": "Geneva", "result_num": "0", "osm_id": "5073077", "display_name": "Rue Saint-Léger, Cité, Genève, 1205, Schweiz/Suisse/Svizzera/Svizra", "category": "highway", "type": "residential", "latlong": "46.19729826305554,6.145450476484312" }, "geometry": { "type": "Point", "coordinates": [ 6.145450476484312, 46.197298263055544 ] } },
{ "type": "Feature", "properties": { "Address": "Avenue Ernest Pictet", "Country": "Switzerland", "State": "Geneva", "result_num": "0", "osm_id": "274929543", "display_name": "Avenue Ernest-Pictet, La Servette, Petit-Saconnex et Servette, Genève, 1203, Schweiz/Suisse/Svizzera/Svizra", "category": "highway", "type": "residential", "latlong": "46.21276024764509,6.124282348267748" }, "geometry": { "type": "Point", "coordinates": [ 6.124282348267748, 46.212760247645093 ] } },
{ "type": "Feature", "properties": { "Address": "9, route de Meyrin", "Country": "Switzerland", "State": "Geneva", "result_num": "0", "osm_id": "82082983", "display_name": "9, Route de Meyrin, La Servette, Petit-Saconnex et Servette, Genève, 1211, Schweiz/Suisse/Svizzera/Svizra", "category": "building", "type": "yes", "latlong": "46.2139756,6.128260999999999" }, "geometry": { "type": "Point", "coordinates": [ 6.128261, 46.2139756 ] } },
{ "type": "Feature", "properties": { "Address": "12b, route de Meyrin", "Country": "Switzerland", "State": "Geneva", "result_num": "0", "osm_id": "186703582", "display_name": "12b, Route de Meyrin, La Servette, Petit-Saconnex et Servette, Genève, 1202, Schweiz/Suisse/Svizzera/Svizra", "category": "building", "type": "yes", "latlong": "46.214926899999995,6.1276648" }, "geometry": { "type": "Point", "coordinates": [ 6.1276648, 46.2149269 ] } },
{ "type": "Feature", "properties": { "Address": "16, rue des Chaudronniers", "Country": "Switzerland", "State": "Geneva", "result_num": "0", "osm_id": "1277062074", "display_name": "16, Rue des Chaudronniers, Cité, Genève, 1204, Schweiz/Suisse/Svizzera/Svizra", "category": "place", "type": "house", "latlong": "46.2001792,6.1500925" }, "geometry": { "type": "Point", "coordinates": [ 6.1500925, 46.2001792 ] } },
{ "type": "Feature", "properties": { "Address": "4, rue Florissant", "Country": "Switzerland", "State": "Geneva", "result_num": "0", "osm_id": "2194822473", "display_name": "4, Rue de Contamines, Florissant, Champel, Genève, 1207, Schweiz/Suisse/Svizzera/Svizra", "category": "place", "type": "house", "latlong": "46.1981649,6.1576035" }, "geometry": { "type": "Point", "coordinates": [ 6.1576035, 46.1981649 ] } },
{ "type": "Feature", "properties": { "Address": "20, plateau de Champel", "Country": "Switzerland", "State": "Geneva", "result_num": "0", "osm_id": "3685329856", "display_name": "20, Plateau de Champel, Champel, Genève, 1206, Schweiz/Suisse/Svizzera/Svizra", "category": "place", "type": "house", "latlong": "46.193088,6.1544664" }, "geometry": { "type": "Point", "coordinates": [ 6.1544664, 46.193088 ] } },
{ "type": "Feature", "properties": { "Address": "6, rue Bonivard", "Country": "Switzerland", "State": "Geneva", "result_num": "0", "osm_id": "1962244148", "display_name": "6, Rue François-Bonivard, Grottes et Saint-Gervais, Genève, 1201, Schweiz/Suisse/Svizzera/Svizra", "category": "place", "type": "house", "latlong": "46.2081081,6.1470545" }, "geometry": { "type": "Point", "coordinates": [ 6.1470545, 46.2081081 ] } },
{ "type": "Feature", "properties": { "Address": "3, place des Charmilles", "Country": "Switzerland", "State": "Geneva", "result_num": "0", "osm_id": "3673121745", "display_name": "3, Place des Charmilles, Saint-Jean et Charmilles, Genève, 1203, Schweiz/Suisse/Svizzera/Svizra", "category": "place", "type": "house", "latlong": "46.2079553,6.127365" }, "geometry": { "type": "Point", "coordinates": [ 6.127365, 46.2079553 ] } },
{ "type": "Feature", "properties": { "Address": "26, Avenue Wendt", "Country": "Switzerland", "State": "Geneva", "result_num": "0", "osm_id": "3673906252", "display_name": "26, Avenue Wendt, Saint-Jean et Charmilles, Genève, 1203, Schweiz/Suisse/Svizzera/Svizra", "category": "place", "type": "house", "latlong": "46.2103465,6.1273528" }, "geometry": { "type": "Point", "coordinates": [ 6.1273528, 46.2103465 ] } },
{ "type": "Feature", "properties": { "Address": "8, route de Meyrin", "Country": "Switzerland", "State": "Geneva", "result_num": "0", "osm_id": "180058874", "display_name": "8, Route de Meyrin, La Servette, Petit-Saconnex et Servette, Genève, 1202, Schweiz/Suisse/Svizzera/Svizra", "category": "building", "type": "yes", "latlong": "46.2144166,6.128556499999999" }, "geometry": { "type": "Point", "coordinates": [ 6.1285565, 46.2144166 ] } },
{ "type": "Feature", "properties": { "Address": "24, boulevard Georges Favon", "Country": "Switzerland", "State": "Geneva", "result_num": "0", "osm_id": "2126273494", "display_name": "24, Boulevard Georges-Favon, Cité, Genève, 1205, Schweiz/Suisse/Svizzera/Svizra", "category": "place", "type": "house", "latlong": "46.2022628,6.1399729" }, "geometry": { "type": "Point", "coordinates": [ 6.1399729, 46.2022628 ] } },
{ "type": "Feature", "properties": { "Address": "10, rue Charles Bonnet", "Country": "Switzerland", "State": "Geneva", "result_num": "0", "osm_id": "2169446017", "display_name": "10, Rue Charles-Bonnet, Cité, Genève, 1204, Schweiz/Suisse/Svizzera/Svizra", "category": "place", "type": "house", "latlong": "46.1974137,6.1508392" }, "geometry": { "type": "Point", "coordinates": [ 6.1508392, 46.1974137 ] } },
{ "type": "Feature", "properties": { "Address": "23, chemin Sarasin", "Country": "Switzerland", "State": "Geneva", "result_num": "0", "osm_id": "79949737", "display_name": "23, Chemin Edouard-Sarasin, Le Grand-Saconnex, Genève, 1218, Schweiz/Suisse/Svizzera/Svizra", "category": "building", "type": "yes", "latlong": "46.23037775,6.116345032462687" }, "geometry": { "type": "Point", "coordinates": [ 6.116345032462687, 46.23037775 ] } },
{ "type": "Feature", "properties": { "Address": "9, avenue Soret", "Country": "Switzerland", "State": "Geneva", "result_num": "0", "osm_id": "188147286", "display_name": "9, Avenue Soret, La Servette, Petit-Saconnex et Servette, Genève, 1203, Schweiz/Suisse/Svizzera/Svizra", "category": "building", "type": "yes", "latlong": "46.21059215,6.12616489979054" }, "geometry": { "type": "Point", "coordinates": [ 6.12616489979054, 46.21059215 ] } },
{ "type": "Feature", "properties": { "Address": "22, rue des Terreaux-du-Temple", "Country": "Switzerland", "State": "Geneva", "result_num": "0", "osm_id": "8285716817", "display_name": "RAFFINÉ, 22, Rue des Terreaux-du-Temple, Grottes et Saint-Gervais, Genève, 1201, Schweiz/Suisse/Svizzera/Svizra", "category": "shop", "type": "shoes", "latlong": "46.2078577,6.1420409" }, "geometry": { "type": "Point", "coordinates": [ 6.1420409, 46.2078577 ] } },
{ "type": "Feature", "properties": { "Address": "24, avenue de Champel", "Country": "Switzerland", "State": "Geneva", "result_num": "0", "osm_id": "2105838376", "display_name": "24, Avenue de Champel, Champel, Genève, 1206, Schweiz/Suisse/Svizzera/Svizra", "category": "place", "type": "house", "latlong": "46.1912185,6.1531949" }, "geometry": { "type": "Point", "coordinates": [ 6.1531949, 46.1912185 ] } },
{ "type": "Feature", "properties": { "Address": "4bis, avenue de Miremont", "Country": "Switzerland", "State": "Geneva", "result_num": "0", "osm_id": "76857245", "display_name": "Avenue de Miremont, Florissant, Champel, Genève, 1206, Schweiz/Suisse/Svizzera/Svizra", "category": "highway", "type": "tertiary", "latlong": "46.18874439192714,6.1571399733682695" }, "geometry": { "type": "Point", "coordinates": [ 6.157139973368269, 46.188744391927138 ] } },
{ "type": "Feature", "properties": { "Address": "4, rue Louis Curval", "Country": "Switzerland", "State": "Geneva", "result_num": "0", "osm_id": "2105838421", "display_name": "4, Rue Louis-Curval, Champel, Genève, 1206, Schweiz/Suisse/Svizzera/Svizra", "category": "place", "type": "house", "latlong": "46.1906491,6.1538548" }, "geometry": { "type": "Point", "coordinates": [ 6.1538548, 46.1906491 ] } },
{ "type": "Feature", "properties": { "Address": "22, Chemin de Grange Canal", "Country": "Switzerland", "State": "Geneva", "result_num": "0", "osm_id": "88302017", "display_name": "22, Chemin de Grange-Canal, Grange-Canal, Chêne-Bougeries, Genève, 1224, Schweiz/Suisse/Svizzera/Svizra", "category": "building", "type": "yes", "latlong": "46.20120885,6.176963201110152" }, "geometry": { "type": "Point", "coordinates": [ 6.176963201110152, 46.20120885 ] } },
{ "type": "Feature", "properties": { "Address": "10, rue Fendt", "Country": "Switzerland", "State": "Geneva", "result_num": "0", "osm_id": "4810193722", "display_name": "Sold eBike, 10, Rue Fendt, Grottes et Saint-Gervais, Genève, 1201, Schweiz/Suisse/Svizzera/Svizra", "category": "shop", "type": "bicycle", "latlong": "46.2113241,6.1410771" }, "geometry": { "type": "Point", "coordinates": [ 6.1410771, 46.2113241 ] } },
{ "type": "Feature", "properties": { "Address": "44, quai Gustave Ador", "Country": "Switzerland", "State": "Geneva", "result_num": "0", "osm_id": "2390681641", "display_name": "44, Quai Gustave-Ador, Les Eaux-Vives, Eaux-Vives, Genève, 1207, Schweiz/Suisse/Svizzera/Svizra", "category": "place", "type": "house", "latlong": "46.2067164,6.1605167" }, "geometry": { "type": "Point", "coordinates": [ 6.1605167, 46.2067164 ] } },
{ "type": "Feature", "properties": { "Address": "24, Bourg-du-Four", "Country": "Switzerland", "State": "Geneva", "result_num": "0", "osm_id": "1246098957", "display_name": "24, Place du Bourg-de-Four, Cité, Genève, 1204, Schweiz/Suisse/Svizzera/Svizra", "category": "place", "type": "house", "latlong": "46.2002541,6.148529" }, "geometry": { "type": "Point", "coordinates": [ 6.148529, 46.2002541 ] } },
{ "type": "Feature", "properties": { "Address": "4, rue Vermont", "Country": "Switzerland", "State": "Geneva", "result_num": "0", "osm_id": "3873500008", "display_name": "Peugeot, 4, Rue de Vermont, Grottes et Saint-Gervais, Genève, 1202, Schweiz/Suisse/Svizzera/Svizra", "category": "shop", "type": "car", "latlong": "46.2152438,6.1343519" }, "geometry": { "type": "Point", "coordinates": [ 6.1343519, 46.2152438 ] } },
{ "type": "Feature", "properties": { "Address": "64, Bourg de Four", "Country": "Switzerland", "State": "Geneva", "result_num": "0", "osm_id": "9238745", "display_name": "Place du Bourg-de-Four, Cité, Genève, 1204, Schweiz/Suisse/Svizzera/Svizra", "category": "highway", "type": "pedestrian", "latlong": "46.200599399999994,6.1493021" }, "geometry": { "type": "Point", "coordinates": [ 6.1493021, 46.2005994 ] } },
{ "type": "Feature", "properties": { "Address": "24, Bourg de Four", "Country": "Switzerland", "State": "Geneva", "result_num": "0", "osm_id": "1246098957", "display_name": "24, Place du Bourg-de-Four, Cité, Genève, 1204, Schweiz/Suisse/Svizzera/Svizra", "category": "place", "type": "house", "latlong": "46.2002541,6.148529" }, "geometry": { "type": "Point", "coordinates": [ 6.148529, 46.2002541 ] } },
{ "type": "Feature", "properties": { "Address": "2, boulevard de la Tour", "Country": "Switzerland", "State": "Geneva", "result_num": "0", "osm_id": "134768879", "display_name": "2, Boulevard de la Tour, Plainpalais, Genève, 1205, Schweiz/Suisse/Svizzera/Svizra", "category": "building", "type": "apartments", "latlong": "46.1953667,6.1470823999999995" }, "geometry": { "type": "Point", "coordinates": [ 6.1470824, 46.1953667 ] } },
{ "type": "Feature", "properties": { "Address": "56, rue de l'Avenir", "Country": "Switzerland", "State": "Geneva", "result_num": "0", "osm_id": "5190755", "display_name": "Rue de l'Avenir, Les Eaux-Vives, Eaux-Vives, Genève, 1207, Schweiz/Suisse/Svizzera/Svizra", "category": "highway", "type": "residential", "latlong": "46.205182854665,6.1612573526946885" }, "geometry": { "type": "Point", "coordinates": [ 6.161257352694689, 46.205182854664997 ] } },
{ "type": "Feature", "properties": { "Address": "1, place du Lac", "Country": "Switzerland", "State": "Geneva", "result_num": "0", "osm_id": "1293463168", "display_name": "1, Place du Lac, Cité, Genève, 1204, Schweiz/Suisse/Svizzera/Svizra", "category": "place", "type": "house", "latlong": "46.2040222,6.1486248" }, "geometry": { "type": "Point", "coordinates": [ 6.1486248, 46.2040222 ] } },